customer_id,customer_1_name,sales_territory_emp_id,sales_territory_emp_name,sales_territory_id,sales_territory_name,customer_latitude,customer_longitude,sales_district_emp_name,sales_district_emp_id,sales_region_emp_name,sales_region_emp_id,sales_region_id,sales_division_emp_id,sales_division_emp_name,color
100191205,BUD'S CORNER,1006510,SCOTT FEHLMAN,2384,Scott Fehlman,40.858778,-81.292359,JASON SHOFFSTALL,1003918,JASON SHOFFSTALL,1003918,2382,1002752,DANA GREEN,#FF6347
694460002,CAMPESINO'S GRILL,1006510,SCOTT FEHLMAN,2384,Scott Fehlman,40.610914,-81.53503,JASON SHOFFSTALL,1003918,JASON SHOFFSTALL,1003918,2382,1002752,DANA GREEN,#FF6347
425440012,DORIDOS RESTAURANT,1001993,ANDY SMITH,4058,Andy Smith,40.321345,-79.995477,DAN SCHER,1003808,BILL HENDERSON,1004626,4209,1002752,DANA GREEN,#ADFF2F
722483770,Ohio Pie - Rocky River,1143541,CLIFFORD STENZEL,4093,CJ Stenzel,41.480052,-81.839483,MICHAEL SUNSERI,1012608,JASON SHOFFSTALL,1003918,2382,1002752,DANA GREEN,#FF0000
100022289,SULLY'S IRISH PUB,1143541,CLIFFORD STENZEL,4093,CJ Stenzel,41.139179,-81.864665,MICHAEL SUNSERI,1012608,JASON SHOFFSTALL,1003918,2382,1002752,DANA GREEN,#FF0000
722588297,Leonoro's Restaurant,1144127,AARON SIMMONS,4187,Aaron Simmons,38.343201,-81.62227,CJ MORRIS,1151728,BILL HENDERSON,1004626,4209,1002752,DANA GREEN,#7F00FF
100059231,BECCARIS FARM MARKET,1144442,BRIAN MERWIN,4213,Brian Merwin,40.37396,-80.133134,DAN SCHER,1003808,BILL HENDERSON,1004626,4209,1002752,DANA GREEN,#ADFF2F
100102772,Charm Pizza Co,1006510,SCOTT FEHLMAN,2384,Scott Fehlman,40.506777,-81.784224,JASON SHOFFSTALL,1003918,JASON SHOFFSTALL,1003918,2382,1002752,DANA GREEN,#FF6347
100272150,ANCHOR HOAGIES,1132417,MIKE PERRUCCI,4214,Mike Perrucci,40.364322,-79.774389,BILLY BLATT,1128843,BILL HENDERSON,1004626,4209,1002752,DANA GREEN,#FF3030
722364295,Adams Flying Pig Coffee House,1003551,DAVE JENKINS,4191,Dave Jenkins,38.713556,-82.856231,CJ MORRIS,1151728,BILL HENDERSON,1004626,4209,1002752,DANA GREEN,#D2691E
722376088,The Crumby Apron,1161026,SHANNON HOWLEY,4059,Shannon Howley,40.128964,-80.81393,DAN SCHER,1003808,BILL HENDERSON,1004626,4209,1002752,DANA GREEN,#FF7F50
100025575,21 AT THE FREDERICK,1012245,TOM HERN,4195,Tom Hern,38.420944,-82.44316,CJ MORRIS,1151728,BILL HENDERSON,1004626,4209,1002752,DANA GREEN,#A9A9A9
722584225,Newellstown Diner,1161026,SHANNON HOWLEY,4059,Shannon Howley,40.080286,-80.90209,DAN SCHER,1003808,BILL HENDERSON,1004626,4209,1002752,DANA GREEN,#FF7F50
100149141,FORTY NINER RESTAURANT,1005616,BILL SMITH,4086,Bill Smith,41.471693,-81.656297,MICHAEL SUNSERI,1012608,JASON SHOFFSTALL,1003918,2382,1002752,DANA GREEN,#FFA500
722594551,Hifive,1126586,RICK ARGOSO,4090,Rick Argoso,41.499271,-81.705759,MICHAEL SUNSERI,1012608,JASON SHOFFSTALL,1003918,2382,1002752,DANA GREEN,#ADFF2F
722590888,Tastyland,1132417,MIKE PERRUCCI,4214,Mike Perrucci,40.346313,-79.573126,BILLY BLATT,1128843,BILL HENDERSON,1004626,4209,1002752,DANA GREEN,#FF3030
890800001,TASTE OF INDIA,1148746,JEREMY NEIDERHISER,4052,Jeremy Neiderhiser,40.465882,-79.953644,BILLY BLATT,1128843,BILL HENDERSON,1004626,4209,1002752,DANA GREEN,#FF7F50
100176180,EL MARIACHI,1009205,BRIAN MARSHALL,4199,Brian Marshall,37.750707,-81.133413,CJ MORRIS,1151728,BILL HENDERSON,1004626,4209,1002752,DANA GREEN,#FF1493
100283796,MI BOYZ BAR AND GRILL,1127280,TYLER KNECHT,4216,Tyler Knecht,39.040044,-82.062203,CJ MORRIS,1151728,BILL HENDERSON,1004626,4209,1002752,DANA GREEN,#00FF7F
100143705,ASIAN CHAO #F18- NILES,1150715,JAMES ROBISON,4011,James Robison,41.211052,-80.75281,JASON SHOFFSTALL,1003918,JASON SHOFFSTALL,1003918,2382,1002752,DANA GREEN,#E6E6FA
722399574,BROWN BARN TAVERN,1007241,CHRIS MADIAS,3796,Chris Madias,41.52684,-81.257872,GREG ENGLEHART,1113736,JASON SHOFFSTALL,1003918,2382,1002752,DANA GREEN,#FF00FF
100203472,BENSON'S MARKET & CATERING,1154683,DAVID PHILLIPS,4422,David Phillips,40.521703,-81.475432,JASON SHOFFSTALL,1003918,JASON SHOFFSTALL,1003918,2382,1002752,DANA GREEN,#00CED1
722618314,Beach Club Bistro,1007192,ADAM PETERSON,4089,Adam Peterson,41.608849,-81.528173,GREG ENGLEHART,1113736,JASON SHOFFSTALL,1003918,2382,1002752,DANA GREEN,#A52A2A
742380001,JALISCO MEXICAN RESTAURANT,1154683,DAVID PHILLIPS,4422,David Phillips,40.901003,-80.824363,JASON SHOFFSTALL,1003918,JASON SHOFFSTALL,1003918,2382,1002752,DANA GREEN,#00CED1
722506022,Great Expectations Child Care & ELC,1154783,ANGEL IVOCK,4483,Angel Ivock,40.4403,-79.240424,BILLY BLATT,1128843,BILL HENDERSON,1004626,4209,1002752,DANA GREEN,#FF69B4
722539620,Dinos Catering at Manakiki,1153212,NICHOLAS CAMPBELL,3797,Nicholas Campbell,41.593609,-81.431691,GREG ENGLEHART,1113736,JASON SHOFFSTALL,1003918,2382,1002752,DANA GREEN,#4682B4
100140458,AQUA PAZZO,1150715,JAMES ROBISON,4011,James Robison,40.995298,-80.643767,JASON SHOFFSTALL,1003918,JASON SHOFFSTALL,1003918,2382,1002752,DANA GREEN,#E6E6FA
760780001,BOB'S CORVETTE CAFE,1005616,BILL SMITH,4086,Bill Smith,41.313161,-81.803958,MICHAEL SUNSERI,1012608,JASON SHOFFSTALL,1003918,2382,1002752,DANA GREEN,#FFA500
722594938,Campbell Creek Pretzels,1154683,DAVID PHILLIPS,4422,David Phillips,40.481491,-81.439206,JASON SHOFFSTALL,1003918,JASON SHOFFSTALL,1003918,2382,1002752,DANA GREEN,#00CED1
100201854,MA AND POP'S COUNTRY KITCHEN.,1152891,LEANDRA JONES,4331,Leandra Jones,40.328157,-80.037816,DAN SCHER,1003808,BILL HENDERSON,1004626,4209,1002752,DANA GREEN,#FFDEAD
100099637,Berlin Heritage Inn,1004399,MAT HARBERT,4012,Mat Harbert,40.559903,-81.790923,JASON SHOFFSTALL,1003918,JASON SHOFFSTALL,1003918,2382,1002752,DANA GREEN,#ADFF2F
732720002,SONNY'S GRILL,1139082,DAN GAGE,4006,Dan Gage,40.135306,-79.842836,DAN SCHER,1003808,BILL HENDERSON,1004626,4209,1002752,DANA GREEN,#007FFF
100015185,STEWARTS ORIG HOTDOGS-5TH AVE,1127280,TYLER KNECHT,4216,Tyler Knecht,38.424483,-82.414049,CJ MORRIS,1151728,BILL HENDERSON,1004626,4209,1002752,DANA GREEN,#00FF7F
100040127,STONEWALL RESORT,1005492,JOSH GEE,4007,Josh Gee,38.948604,-80.493748,DAN SCHER,1003808,BILL HENDERSON,1004626,4209,1002752,DANA GREEN,#BA55D3
539820001,VILLAGE CATERING,1003551,DAVE JENKINS,4191,Dave Jenkins,38.74528,-82.947955,CJ MORRIS,1151728,BILL HENDERSON,1004626,4209,1002752,DANA GREEN,#D2691E
722323748,Spins Bowl Independence,1149733,SCOTT SCHAEFFER,4088,Scott Schaeffer,41.409999,-81.640688,MICHAEL SUNSERI,1012608,JASON SHOFFSTALL,1003918,2382,1002752,DANA GREEN,#FF7F50
100140324,PLUS 1 PIZZA - CALDWELL,1002320,JASON BAUER,3942,Jason Bauer,39.740945,-81.504164,CJ MORRIS,1151728,BILL HENDERSON,1004626,4209,1002752,DANA GREEN,#007FFF
100191085,GATHERINGS PUB & GRILL,1146883,KRISTIAN YOUNG,3803,Kristian Young,42.115002,-80.056542,GREG ENGLEHART,1113736,JASON SHOFFSTALL,1003918,2382,1002752,DANA GREEN,#A9A9A9
722407861,CASA DEL RIO EXPRESS,1143541,CLIFFORD STENZEL,4093,CJ Stenzel,41.127163,-81.607714,MICHAEL SUNSERI,1012608,JASON SHOFFSTALL,1003918,2382,1002752,DANA GREEN,#FF0000
722362626,Casa Tlaquepaque,1006510,SCOTT FEHLMAN,2384,Scott Fehlman,40.881742,-81.426705,JASON SHOFFSTALL,1003918,JASON SHOFFSTALL,1003918,2382,1002752,DANA GREEN,#FF6347
161810029,MOCHA HOUSE (THE),1114322,VINCE RICOTTILLI,3489,Vince Ricottilli,41.237715,-80.812391,JASON SHOFFSTALL,1003918,JASON SHOFFSTALL,1003918,2382,1002752,DANA GREEN,#FF3030
229660003,AMISH DOOR INN,1006510,SCOTT FEHLMAN,2384,Scott Fehlman,40.654053,-81.639725,JASON SHOFFSTALL,1003918,JASON SHOFFSTALL,1003918,2382,1002752,DANA GREEN,#FF6347
100015293,CARROLL COUNTY AIRPORT REST,1154683,DAVID PHILLIPS,4422,David Phillips,40.562759,-81.077029,JASON SHOFFSTALL,1003918,JASON SHOFFSTALL,1003918,2382,1002752,DANA GREEN,#00CED1
722361479,Leisure Lanes,1009205,BRIAN MARSHALL,4199,Brian Marshall,37.778371,-81.172838,CJ MORRIS,1151728,BILL HENDERSON,1004626,4209,1002752,DANA GREEN,#FF1493
722630442,Madison Brewing Company,1006822,ANTHONY TRISTANO,3805,Anthony Tristano,41.771391,-81.048812,MICHAEL SUNSERI,1012608,JASON SHOFFSTALL,1003918,2382,1002752,DANA GREEN,#FF69B4
470880015,HARP TAVERN (THE),1126586,RICK ARGOSO,4090,Rick Argoso,41.487592,-81.71689,MICHAEL SUNSERI,1012608,JASON SHOFFSTALL,1003918,2382,1002752,DANA GREEN,#ADFF2F
100116903,Urban Tap Southside,1148746,JEREMY NEIDERHISER,4052,Jeremy Neiderhiser,40.428802,-79.986314,BILLY BLATT,1128843,BILL HENDERSON,1004626,4209,1002752,DANA GREEN,#FF7F50
100263973,El Bandido Oak Hill,1009205,BRIAN MARSHALL,4199,Brian Marshall,38.007106,-81.130041,CJ MORRIS,1151728,BILL HENDERSON,1004626,4209,1002752,DANA GREEN,#FF1493
100153802,AKRON IBH - SOUTH HOUSE,1147053,SHAUN NELSON,4013,Shaun Nelson,40.995713,-81.52297,JASON SHOFFSTALL,1003918,JASON SHOFFSTALL,1003918,2382,1002752,DANA GREEN,#FFF0F5
722635282,Pitmaster's Pizzeria,1004399,MAT HARBERT,4012,Mat Harbert,40.554828,-81.920853,JASON SHOFFSTALL,1003918,JASON SHOFFSTALL,1003918,2382,1002752,DANA GREEN,#ADFF2F
722415815,Salsaroja Bar & Grill,1004399,MAT HARBERT,4012,Mat Harbert,40.797959,-81.941046,JASON SHOFFSTALL,1003918,JASON SHOFFSTALL,1003918,2382,1002752,DANA GREEN,#ADFF2F
722519471,The Steel Shaker,1001993,ANDY SMITH,4058,Andy Smith,40.519594,-80.167072,DAN SCHER,1003808,BILL HENDERSON,1004626,4209,1002752,DANA GREEN,#ADFF2F
722407618,Alnazer Mediterranean Cuisine,1126586,RICK ARGOSO,4090,Rick Argoso,41.482662,-81.66399,MICHAEL SUNSERI,1012608,JASON SHOFFSTALL,1003918,2382,1002752,DANA GREEN,#ADFF2F
722555122,Mike & Pop's Bistro,1142044,JOHN D'ROZARIO,3802,John Drozario,42.966536,-78.87056,GREG ENGLEHART,1113736,JASON SHOFFSTALL,1003918,2382,1002752,DANA GREEN,#B22222
100133575,FRATELLI'S ITALIAN RESTAURANT,1012245,TOM HERN,4195,Tom Hern,38.412962,-82.30987,CJ MORRIS,1151728,BILL HENDERSON,1004626,4209,1002752,DANA GREEN,#A9A9A9
722516423,Red Wine & Brew,1007241,CHRIS MADIAS,3796,Chris Madias,41.681521,-81.294855,GREG ENGLEHART,1113736,JASON SHOFFSTALL,1003918,2382,1002752,DANA GREEN,#FF00FF
337330029,German's Villa,1154684,ROBERT MCKEE,3575,Robert McKee,41.424878,-82.312225,MICHAEL SUNSERI,1012608,JASON SHOFFSTALL,1003918,2382,1002752,DANA GREEN,#7F00FF
722603187,Bistro to Go - Warehouse,1148746,JEREMY NEIDERHISER,4052,Jeremy Neiderhiser,40.45336,-80.000998,BILLY BLATT,1128843,BILL HENDERSON,1004626,4209,1002752,DANA GREEN,#FF7F50
722542531,The Federal,1114322,VINCE RICOTTILLI,3489,Vince Ricottilli,41.10078,-80.65082,JASON SHOFFSTALL,1003918,JASON SHOFFSTALL,1003918,2382,1002752,DANA GREEN,#FF3030
100147449,LINDEY'S LAKE HOUSE FLATS,1007241,CHRIS MADIAS,3796,Chris Madias,41.499347,-81.705058,GREG ENGLEHART,1113736,JASON SHOFFSTALL,1003918,2382,1002752,DANA GREEN,#FF00FF
722525586,King's Buffet & Grill,1002320,JASON BAUER,3942,Jason Bauer,39.275025,-81.556646,CJ MORRIS,1151728,BILL HENDERSON,1004626,4209,1002752,DANA GREEN,#007FFF
253760028,SORRENTO PIZZARIA,1114322,VINCE RICOTTILLI,3489,Vince Ricottilli,41.251364,-80.85422,JASON SHOFFSTALL,1003918,JASON SHOFFSTALL,1003918,2382,1002752,DANA GREEN,#FF3030
100036001,SMOOTHIE FUSION,1150715,JAMES ROBISON,4011,James Robison,41.021409,-80.662668,JASON SHOFFSTALL,1003918,JASON SHOFFSTALL,1003918,2382,1002752,DANA GREEN,#E6E6FA
970380001,GUS'S FAMILY RESTAURANT,1156768,MATTHEW DEPANTE,4092,Matt DePante,41.435234,-81.706808,MICHAEL SUNSERI,1012608,JASON SHOFFSTALL,1003918,2382,1002752,DANA GREEN,#FFD700
100139839,FLAVORS AROUND THE SQUARE,1153212,NICHOLAS CAMPBELL,3797,Nicholas Campbell,41.725124,-81.24203,GREG ENGLEHART,1113736,JASON SHOFFSTALL,1003918,2382,1002752,DANA GREEN,#4682B4
722519394,Last Resort Riverfront Bar & Grill,1161026,SHANNON HOWLEY,4059,Shannon Howley,40.477611,-80.600315,DAN SCHER,1003808,BILL HENDERSON,1004626,4209,1002752,DANA GREEN,#FF7F50
722515914,Kleifelds,1153212,NICHOLAS CAMPBELL,3797,Nicholas Campbell,41.641637,-81.406676,GREG ENGLEHART,1113736,JASON SHOFFSTALL,1003918,2382,1002752,DANA GREEN,#4682B4
722592625,Bombay To Burgh,1132417,MIKE PERRUCCI,4214,Mike Perrucci,40.423637,-79.887111,BILLY BLATT,1128843,BILL HENDERSON,1004626,4209,1002752,DANA GREEN,#FF3030
487920029,COVERED BRIDGE INN RESTAURANT,1114322,VINCE RICOTTILLI,3489,Vince Ricottilli,41.187839,-80.976458,JASON SHOFFSTALL,1003918,JASON SHOFFSTALL,1003918,2382,1002752,DANA GREEN,#FF3030
722514146,Angelos Pizzeria,1153212,NICHOLAS CAMPBELL,3797,Nicholas Campbell,41.58374,-81.3506,GREG ENGLEHART,1113736,JASON SHOFFSTALL,1003918,2382,1002752,DANA GREEN,#4682B4
100012990,DOBI CATERING,1156224,AMANDA HILL,4671,Amanda Hill,40.599276,-79.609688,BILLY BLATT,1128843,BILL HENDERSON,1004626,4209,1002752,DANA GREEN,#D2691E
722582277,Mama Randazzo's,1140956,MICHAEL HUBER,4212,Michael Huber,40.537796,-78.397916,BILLY BLATT,1128843,BILL HENDERSON,1004626,4209,1002752,DANA GREEN,#FF007F
100098751,FAIRPLAIN YACHT CLUB,1144127,AARON SIMMONS,4187,Aaron Simmons,38.761831,-81.685941,CJ MORRIS,1151728,BILL HENDERSON,1004626,4209,1002752,DANA GREEN,#7F00FF
368050005,MAYA,1005616,BILL SMITH,4086,Bill Smith,41.372225,-81.866477,MICHAEL SUNSERI,1012608,JASON SHOFFSTALL,1003918,2382,1002752,DANA GREEN,#FFA500
722616670,Comfort Inn,1012245,TOM HERN,4195,Tom Hern,38.39543,-82.412737,CJ MORRIS,1151728,BILL HENDERSON,1004626,4209,1002752,DANA GREEN,#A9A9A9
223110029,ABBEY'S,1161026,SHANNON HOWLEY,4059,Shannon Howley,40.072367,-80.735625,DAN SCHER,1003808,BILL HENDERSON,1004626,4209,1002752,DANA GREEN,#FF7F50
722637670,NY Bagel Deli,1143541,CLIFFORD STENZEL,4093,CJ Stenzel,41.136967,-81.82077,MICHAEL SUNSERI,1012608,JASON SHOFFSTALL,1003918,2382,1002752,DANA GREEN,#FF0000
486350016,Black Hawk Golf Course,1152307,KRISTEN STEWART,4054,Kristen Stewart,40.761765,-80.40586,BILLY BLATT,1128843,BILL HENDERSON,1004626,4209,1002752,DANA GREEN,#007FFF
722602242,Rochester Hotel,1152307,KRISTEN STEWART,4054,Kristen Stewart,40.700995,-80.284115,BILLY BLATT,1128843,BILL HENDERSON,1004626,4209,1002752,DANA GREEN,#007FFF
100241545,GOLDIE'S DELI & RESTAURANT,1005616,BILL SMITH,4086,Bill Smith,41.316881,-81.835295,MICHAEL SUNSERI,1012608,JASON SHOFFSTALL,1003918,2382,1002752,DANA GREEN,#FFA500
722511869,China King,1143541,CLIFFORD STENZEL,4093,CJ Stenzel,41.245103,-81.841316,MICHAEL SUNSERI,1012608,JASON SHOFFSTALL,1003918,2382,1002752,DANA GREEN,#FF0000
100053326,PETTIS PIZZA,1153212,NICHOLAS CAMPBELL,3797,Nicholas Campbell,41.60614,-81.474199,GREG ENGLEHART,1113736,JASON SHOFFSTALL,1003918,2382,1002752,DANA GREEN,#4682B4
722340658,Fuel Counter-Barboursville,1012245,TOM HERN,4195,Tom Hern,38.412962,-82.30987,CJ MORRIS,1151728,BILL HENDERSON,1004626,4209,1002752,DANA GREEN,#A9A9A9
780030001,COFFEE CORNERS ANTIQUES & COFF HSE,1003048,DAVID POOLE,3800,David Poole,41.473287,-81.145203,GREG ENGLEHART,1113736,JASON SHOFFSTALL,1003918,2382,1002752,DANA GREEN,#A9A9A9
100021293,STOKE'S GRILL,1156224,AMANDA HILL,4671,Amanda Hill,40.521359,-80.005373,BILLY BLATT,1128843,BILL HENDERSON,1004626,4209,1002752,DANA GREEN,#D2691E
722375529,Lehman's,1004399,MAT HARBERT,4012,Mat Harbert,40.741481,-81.745207,JASON SHOFFSTALL,1003918,JASON SHOFFSTALL,1003918,2382,1002752,DANA GREEN,#ADFF2F
722591739,Lake Life Deli & Dogs,1147053,SHAUN NELSON,4013,Shaun Nelson,40.961471,-81.565867,JASON SHOFFSTALL,1003918,JASON SHOFFSTALL,1003918,2382,1002752,DANA GREEN,#FFF0F5
239720002,RODHE'S IGA SUPER CENTER,1004399,MAT HARBERT,4012,Mat Harbert,40.543076,-81.91271,JASON SHOFFSTALL,1003918,JASON SHOFFSTALL,1003918,2382,1002752,DANA GREEN,#ADFF2F
100018213,DONTINO'S,1127444,CORINNE BERRETT,3556,Corinne Berrett,41.113659,-81.499088,JASON SHOFFSTALL,1003918,JASON SHOFFSTALL,1003918,2382,1002752,DANA GREEN,#00FF00
100279915,Sticky Fingers BBQ & Cafe,1156669,MICHAEL SIMON,3798,Michael Simon,41.879087,-80.753069,GREG ENGLEHART,1113736,JASON SHOFFSTALL,1003918,2382,1002752,DANA GREEN,#E6E6FA
100173861,PIKE 40 (THE),1161026,SHANNON HOWLEY,4059,Shannon Howley,40.066252,-81.060218,DAN SCHER,1003808,BILL HENDERSON,1004626,4209,1002752,DANA GREEN,#FF7F50
555240015,CHINA CHEF,1012245,TOM HERN,4195,Tom Hern,38.450449,-81.935759,CJ MORRIS,1151728,BILL HENDERSON,1004626,4209,1002752,DANA GREEN,#A9A9A9
722403564,DOUGHBOYS PIZZA AND WINGS,1154684,ROBERT MCKEE,3575,Robert McKee,41.498808,-82.072334,MICHAEL SUNSERI,1012608,JASON SHOFFSTALL,1003918,2382,1002752,DANA GREEN,#7F00FF
722611848,Kaballos Mexican Kitchen And Bar,1003048,DAVID POOLE,3800,David Poole,41.46279,-81.085109,GREG ENGLEHART,1113736,JASON SHOFFSTALL,1003918,2382,1002752,DANA GREEN,#A9A9A9
722325510,Sip Wine and Whiskey Bar,1012245,TOM HERN,4195,Tom Hern,38.423746,-82.441042,CJ MORRIS,1151728,BILL HENDERSON,1004626,4209,1002752,DANA GREEN,#A9A9A9
722558817,Buckeye Brownies,1127444,CORINNE BERRETT,3556,Corinne Berrett,41.102202,-81.481164,JASON SHOFFSTALL,1003918,JASON SHOFFSTALL,1003918,2382,1002752,DANA GREEN,#00FF00
100152707,AVON BREWING COMPANY,1006822,ANTHONY TRISTANO,3805,Anthony Tristano,41.451481,-82.035359,MICHAEL SUNSERI,1012608,JASON SHOFFSTALL,1003918,2382,1002752,DANA GREEN,#FF69B4
872320001,FUSION JAPANESE STEAKHOUSE,1002320,JASON BAUER,3942,Jason Bauer,39.314639,-81.553432,CJ MORRIS,1151728,BILL HENDERSON,1004626,4209,1002752,DANA GREEN,#007FFF
100104381,Napoli of Park Place,1152891,LEANDRA JONES,4331,Leandra Jones,40.212255,-80.193188,DAN SCHER,1003808,BILL HENDERSON,1004626,4209,1002752,DANA GREEN,#FFDEAD
100047645,OTB BICYCLE CAFE- SOUTHSIDE,1001993,ANDY SMITH,4058,Andy Smith,40.427552,-79.968943,DAN SCHER,1003808,BILL HENDERSON,1004626,4209,1002752,DANA GREEN,#ADFF2F
722347619,The Pitch LLC,1144127,AARON SIMMONS,4187,Aaron Simmons,38.379186,-81.758145,CJ MORRIS,1151728,BILL HENDERSON,1004626,4209,1002752,DANA GREEN,#7F00FF
722647323,Butcher Block,1002320,JASON BAUER,3942,Jason Bauer,38.92166,-81.81181,CJ MORRIS,1151728,BILL HENDERSON,1004626,4209,1002752,DANA GREEN,#007FFF
929290001,BROUGHTON VOLUNTEER FIRE DEPT,1152891,LEANDRA JONES,4331,Leandra Jones,40.321388,-79.982791,DAN SCHER,1003808,BILL HENDERSON,1004626,4209,1002752,DANA GREEN,#FFDEAD
100114610,COURTSIDE BAR & GRILL,1127280,TYLER KNECHT,4216,Tyler Knecht,38.806805,-82.207174,CJ MORRIS,1151728,BILL HENDERSON,1004626,4209,1002752,DANA GREEN,#00FF7F
100237451,CHAGRIN RIVER DINER,1007241,CHRIS MADIAS,3796,Chris Madias,41.640668,-81.406581,GREG ENGLEHART,1113736,JASON SHOFFSTALL,1003918,2382,1002752,DANA GREEN,#FF00FF
722488041,Steel Mill Saloon,1001993,ANDY SMITH,4058,Andy Smith,40.438238,-80.019234,DAN SCHER,1003808,BILL HENDERSON,1004626,4209,1002752,DANA GREEN,#ADFF2F
722390621,Toni's Pizza,1156648,TONY BEHRENS,4091,Tony Behrens,41.485234,-81.787182,MICHAEL SUNSERI,1012608,JASON SHOFFSTALL,1003918,2382,1002752,DANA GREEN,#FF7F50
722525950,The Weaver's Creamery,1139233,TOM MICCO,4051,Tom Micco,41.181775,-80.021817,BILLY BLATT,1128843,BILL HENDERSON,1004626,4209,1002752,DANA GREEN,#FFF0F5
100278729,Mario's 410 Grille,1152307,KRISTEN STEWART,4054,Kristen Stewart,40.697753,-80.294259,BILLY BLATT,1128843,BILL HENDERSON,1004626,4209,1002752,DANA GREEN,#007FFF
100164336,CRH CATERING CO,1139082,DAN GAGE,4006,Dan Gage,39.964692,-79.636608,DAN SCHER,1003808,BILL HENDERSON,1004626,4209,1002752,DANA GREEN,#007FFF
100269310,BUBBA'S IRWIN,1154783,ANGEL IVOCK,4483,Angel Ivock,40.323479,-79.700467,BILLY BLATT,1128843,BILL HENDERSON,1004626,4209,1002752,DANA GREEN,#FF69B4
722557272,Massa Mias Italian Restaurant,1006510,SCOTT FEHLMAN,2384,Scott Fehlman,40.3623,-81.43843,JASON SHOFFSTALL,1003918,JASON SHOFFSTALL,1003918,2382,1002752,DANA GREEN,#FF6347
100285269,FLIGNER ENTERPRISE,1154684,ROBERT MCKEE,3575,Robert McKee,41.453442,-82.166487,MICHAEL SUNSERI,1012608,JASON SHOFFSTALL,1003918,2382,1002752,DANA GREEN,#7F00FF
100020305,MICHAEL'S CAFE,1003048,DAVID POOLE,3800,David Poole,41.339497,-81.439894,GREG ENGLEHART,1113736,JASON SHOFFSTALL,1003918,2382,1002752,DANA GREEN,#A9A9A9
100045806,JCS RESTAURANT,1003048,DAVID POOLE,3800,David Poole,41.47088,-81.146366,GREG ENGLEHART,1113736,JASON SHOFFSTALL,1003918,2382,1002752,DANA GREEN,#A9A9A9
100106049,SUDS MAGUIRE'S,1005616,BILL SMITH,4086,Bill Smith,41.372541,-81.890552,MICHAEL SUNSERI,1012608,JASON SHOFFSTALL,1003918,2382,1002752,DANA GREEN,#FFA500
100113316,FAIRVIEW SUNSET ROOM,1152891,LEANDRA JONES,4331,Leandra Jones,40.339181,-80.126493,DAN SCHER,1003808,BILL HENDERSON,1004626,4209,1002752,DANA GREEN,#FFDEAD
722515090,Buddy's All American BBQ,1012245,TOM HERN,4195,Tom Hern,38.423812,-82.433051,CJ MORRIS,1151728,BILL HENDERSON,1004626,4209,1002752,DANA GREEN,#A9A9A9
722534796,Levee House Bistro,1002320,JASON BAUER,3942,Jason Bauer,39.410577,-81.451753,CJ MORRIS,1151728,BILL HENDERSON,1004626,4209,1002752,DANA GREEN,#007FFF
722641803,Dellantinas,1156224,AMANDA HILL,4671,Amanda Hill,40.810967,-79.516553,BILLY BLATT,1128843,BILL HENDERSON,1004626,4209,1002752,DANA GREEN,#D2691E
100160677,BRICK & MORTAR,1152891,LEANDRA JONES,4331,Leandra Jones,40.391788,-80.087687,DAN SCHER,1003808,BILL HENDERSON,1004626,4209,1002752,DANA GREEN,#FFDEAD
722561472,Salvatore's Italian Grill,1114322,VINCE RICOTTILLI,3489,Vince Ricottilli,41.237936,-80.732821,JASON SHOFFSTALL,1003918,JASON SHOFFSTALL,1003918,2382,1002752,DANA GREEN,#FF3030
722322056,Johnnys Pizzeria Ice Cream and Grill,1003048,DAVID POOLE,3800,David Poole,41.470817,-81.193893,GREG ENGLEHART,1113736,JASON SHOFFSTALL,1003918,2382,1002752,DANA GREEN,#A9A9A9
722542438,Penn Brewery Airport,1156224,AMANDA HILL,4671,Amanda Hill,40.496062,-80.256524,BILLY BLATT,1128843,BILL HENDERSON,1004626,4209,1002752,DANA GREEN,#D2691E
100291342,RAINTREE GOLF AND EVENT CENTER,1152843,NICOLAS LOOMAN,4009,Nicolas Looman,40.950809,-81.437134,JASON SHOFFSTALL,1003918,JASON SHOFFSTALL,1003918,2382,1002752,DANA GREEN,#BA55D3
805880001,NAPOLI'S PIZZA,1002320,JASON BAUER,3942,Jason Bauer,39.273126,-81.569513,CJ MORRIS,1151728,BILL HENDERSON,1004626,4209,1002752,DANA GREEN,#007FFF
864540001,MOCHA HOUSE BOARDMAN (THE),1114322,VINCE RICOTTILLI,3489,Vince Ricottilli,41.025672,-80.628203,JASON SHOFFSTALL,1003918,JASON SHOFFSTALL,1003918,2382,1002752,DANA GREEN,#FF3030
933090001,EDDY'S DELI,1147053,SHAUN NELSON,4013,Shaun Nelson,41.145644,-81.487181,JASON SHOFFSTALL,1003918,JASON SHOFFSTALL,1003918,2382,1002752,DANA GREEN,#FFF0F5
100286585,BOGSIDE PUB,1153212,NICHOLAS CAMPBELL,3797,Nicholas Campbell,41.621883,-81.458057,GREG ENGLEHART,1113736,JASON SHOFFSTALL,1003918,2382,1002752,DANA GREEN,#4682B4
722547858,Robert J Events & Catering,1127444,CORINNE BERRETT,3556,Corinne Berrett,41.102298,-81.485971,JASON SHOFFSTALL,1003918,JASON SHOFFSTALL,1003918,2382,1002752,DANA GREEN,#00FF00
722533925,Boyd & Wurthmann Restaurant,1004399,MAT HARBERT,4012,Mat Harbert,40.56195,-81.7957,JASON SHOFFSTALL,1003918,JASON SHOFFSTALL,1003918,2382,1002752,DANA GREEN,#ADFF2F
722372810,Cilantro & Ajo Southside,1148746,JEREMY NEIDERHISER,4052,Jeremy Neiderhiser,40.428738,-79.989709,BILLY BLATT,1128843,BILL HENDERSON,1004626,4209,1002752,DANA GREEN,#FF7F50
722550556,The Office,1005492,JOSH GEE,4007,Josh Gee,39.106629,-80.40759,DAN SCHER,1003808,BILL HENDERSON,1004626,4209,1002752,DANA GREEN,#BA55D3
722523852,#218 Peebles Food Mart,1127280,TYLER KNECHT,4216,Tyler Knecht,38.934158,-83.416539,CJ MORRIS,1151728,BILL HENDERSON,1004626,4209,1002752,DANA GREEN,#00FF7F
722490456,Saffron Patch North Olmsted,1006822,ANTHONY TRISTANO,3805,Anthony Tristano,41.414651,-81.909332,MICHAEL SUNSERI,1012608,JASON SHOFFSTALL,1003918,2382,1002752,DANA GREEN,#FF69B4
722582708,Salt Creek Cafe,1004399,MAT HARBERT,4012,Mat Harbert,40.676785,-81.870447,JASON SHOFFSTALL,1003918,JASON SHOFFSTALL,1003918,2382,1002752,DANA GREEN,#ADFF2F
100045768,SALAD KRAZE,1156648,TONY BEHRENS,4091,Tony Behrens,41.482533,-82.019295,MICHAEL SUNSERI,1012608,JASON SHOFFSTALL,1003918,2382,1002752,DANA GREEN,#FF7F50
100196381,DOGG HOUSE BAR & GRILL,1006822,ANTHONY TRISTANO,3805,Anthony Tristano,41.504677,-82.048645,MICHAEL SUNSERI,1012608,JASON SHOFFSTALL,1003918,2382,1002752,DANA GREEN,#FF69B4
100258317,CANARY'S FAMILY RESTAURANT,1156768,MATTHEW DEPANTE,4092,Matt DePante,41.407188,-81.943158,MICHAEL SUNSERI,1012608,JASON SHOFFSTALL,1003918,2382,1002752,DANA GREEN,#FFD700
100057546,ACE ADVENTURE RESORT,1009205,BRIAN MARSHALL,4199,Brian Marshall,37.973148,-81.097547,CJ MORRIS,1151728,BILL HENDERSON,1004626,4209,1002752,DANA GREEN,#FF1493
100259337,APOLLO CAFE (THE),1148746,JEREMY NEIDERHISER,4052,Jeremy Neiderhiser,40.439009,-79.997954,BILLY BLATT,1128843,BILL HENDERSON,1004626,4209,1002752,DANA GREEN,#FF7F50
100108409,Aloft Beachwood,1006822,ANTHONY TRISTANO,3805,Anthony Tristano,41.454086,-81.500571,MICHAEL SUNSERI,1012608,JASON SHOFFSTALL,1003918,2382,1002752,DANA GREEN,#FF69B4
722503417,Landmark Smokehouse,1126586,RICK ARGOSO,4090,Rick Argoso,41.487387,-81.768154,MICHAEL SUNSERI,1012608,JASON SHOFFSTALL,1003918,2382,1002752,DANA GREEN,#ADFF2F
722378951,Somi,1148746,JEREMY NEIDERHISER,4052,Jeremy Neiderhiser,40.456707,-79.915526,BILLY BLATT,1128843,BILL HENDERSON,1004626,4209,1002752,DANA GREEN,#FF7F50
722531369,City Kitchen,1148746,JEREMY NEIDERHISER,4052,Jeremy Neiderhiser,40.45669,-79.915501,BILLY BLATT,1128843,BILL HENDERSON,1004626,4209,1002752,DANA GREEN,#FF7F50
100206052,LEHMANS DELI,1156648,TONY BEHRENS,4091,Tony Behrens,41.470541,-81.896621,MICHAEL SUNSERI,1012608,JASON SHOFFSTALL,1003918,2382,1002752,DANA GREEN,#FF7F50
722553587,Taps on 2nd Tavern and Grill,1140956,MICHAEL HUBER,4212,Michael Huber,40.515812,-78.376538,BILLY BLATT,1128843,BILL HENDERSON,1004626,4209,1002752,DANA GREEN,#FF007F
133600019,WEST TEXAS ROADHOUSE,1161026,SHANNON HOWLEY,4059,Shannon Howley,40.077013,-80.868587,DAN SCHER,1003808,BILL HENDERSON,1004626,4209,1002752,DANA GREEN,#FF7F50
722623082,Jojo's Creamery,1153212,NICHOLAS CAMPBELL,3797,Nicholas Campbell,41.696889,-81.394539,GREG ENGLEHART,1113736,JASON SHOFFSTALL,1003918,2382,1002752,DANA GREEN,#4682B4
100113058,StoneWater Golf Club,1007241,CHRIS MADIAS,3796,Chris Madias,41.562561,-81.470621,GREG ENGLEHART,1113736,JASON SHOFFSTALL,1003918,2382,1002752,DANA GREEN,#FF00FF
722523847,#278 One Twenty Four Mart,1127280,TYLER KNECHT,4216,Tyler Knecht,39.025132,-82.066737,CJ MORRIS,1151728,BILL HENDERSON,1004626,4209,1002752,DANA GREEN,#00FF7F
722379526,Totally Baked Pizza,1127444,CORINNE BERRETT,3556,Corinne Berrett,41.085204,-81.515524,JASON SHOFFSTALL,1003918,JASON SHOFFSTALL,1003918,2382,1002752,DANA GREEN,#00FF00
722411329,BLENNERHASSETT HOTEL,1002320,JASON BAUER,3942,Jason Bauer,39.26473,-81.56229,CJ MORRIS,1151728,BILL HENDERSON,1004626,4209,1002752,DANA GREEN,#007FFF
100065325,91 Wood Fired Oven,1152843,NICOLAS LOOMAN,4009,Nicolas Looman,40.855417,-81.452767,JASON SHOFFSTALL,1003918,JASON SHOFFSTALL,1003918,2382,1002752,DANA GREEN,#BA55D3
722626037,Loaded,1148746,JEREMY NEIDERHISER,4052,Jeremy Neiderhiser,40.473048,-79.958716,BILLY BLATT,1128843,BILL HENDERSON,1004626,4209,1002752,DANA GREEN,#FF7F50
100251841,V&V SCRATCH KITCHEN,1001993,ANDY SMITH,4058,Andy Smith,40.266056,-80.00288,DAN SCHER,1003808,BILL HENDERSON,1004626,4209,1002752,DANA GREEN,#ADFF2F
335640001,Allegheny Country Club,1152307,KRISTEN STEWART,4054,Kristen Stewart,40.561533,-80.164673,BILLY BLATT,1128843,BILL HENDERSON,1004626,4209,1002752,DANA GREEN,#007FFF
722605971,Bar Forno,1156648,TONY BEHRENS,4091,Tony Behrens,41.639959,-81.473607,MICHAEL SUNSERI,1012608,JASON SHOFFSTALL,1003918,2382,1002752,DANA GREEN,#FF7F50
722386858,Swiftwater General Store New River,1009205,BRIAN MARSHALL,4199,Brian Marshall,38.083421,-81.073462,CJ MORRIS,1151728,BILL HENDERSON,1004626,4209,1002752,DANA GREEN,#FF1493
100154909,SCRAGGLEPOP,1012245,TOM HERN,4195,Tom Hern,38.429149,-82.581516,CJ MORRIS,1151728,BILL HENDERSON,1004626,4209,1002752,DANA GREEN,#A9A9A9
722349917,Kanawha Valley Senior Services,1144127,AARON SIMMONS,4187,Aaron Simmons,38.361548,-81.617821,CJ MORRIS,1151728,BILL HENDERSON,1004626,4209,1002752,DANA GREEN,#7F00FF
722385225,White Water Adventurers,1132417,MIKE PERRUCCI,4214,Mike Perrucci,39.867559,-79.493701,BILLY BLATT,1128843,BILL HENDERSON,1004626,4209,1002752,DANA GREEN,#FF3030
100101547,CARDINAL HILL GROCERY,1004399,MAT HARBERT,4012,Mat Harbert,40.63652,-81.903784,JASON SHOFFSTALL,1003918,JASON SHOFFSTALL,1003918,2382,1002752,DANA GREEN,#ADFF2F
384450003,FAMOUS WOK,1154783,ANGEL IVOCK,4483,Angel Ivock,40.30306,-79.508444,BILLY BLATT,1128843,BILL HENDERSON,1004626,4209,1002752,DANA GREEN,#FF69B4
100104739,COUNTY LINE BAR & GRILL,1152843,NICOLAS LOOMAN,4009,Nicolas Looman,40.988918,-81.249299,JASON SHOFFSTALL,1003918,JASON SHOFFSTALL,1003918,2382,1002752,DANA GREEN,#BA55D3
372080019,MEHLMANS CAFETERIA,1161026,SHANNON HOWLEY,4059,Shannon Howley,40.071966,-80.852054,DAN SCHER,1003808,BILL HENDERSON,1004626,4209,1002752,DANA GREEN,#FF7F50
100274407,San Marzano Italian Restr,1005492,JOSH GEE,4007,Josh Gee,39.653796,-79.890138,DAN SCHER,1003808,BILL HENDERSON,1004626,4209,1002752,DANA GREEN,#BA55D3
100115497,Falls Market,1132417,MIKE PERRUCCI,4214,Mike Perrucci,39.869732,-79.49294,BILLY BLATT,1128843,BILL HENDERSON,1004626,4209,1002752,DANA GREEN,#FF3030
722526934,Fairyland,1161026,SHANNON HOWLEY,4059,Shannon Howley,39.957426,-81.175033,DAN SCHER,1003808,BILL HENDERSON,1004626,4209,1002752,DANA GREEN,#FF7F50
100118931,The Local Coffee and Tea,1154684,ROBERT MCKEE,3575,Robert McKee,41.29104,-82.217348,MICHAEL SUNSERI,1012608,JASON SHOFFSTALL,1003918,2382,1002752,DANA GREEN,#7F00FF
722515390,Kravitz Delicatessen,1114322,VINCE RICOTTILLI,3489,Vince Ricottilli,41.140301,-80.665434,JASON SHOFFSTALL,1003918,JASON SHOFFSTALL,1003918,2382,1002752,DANA GREEN,#FF3030
100115485,GIORGIO'S RISTORANTE,1114322,VINCE RICOTTILLI,3489,Vince Ricottilli,41.203044,-80.736913,JASON SHOFFSTALL,1003918,JASON SHOFFSTALL,1003918,2382,1002752,DANA GREEN,#FF3030
910640001,BROWNSVILLE DRIVE INN,1139082,DAN GAGE,4006,Dan Gage,39.997321,-79.855232,DAN SCHER,1003808,BILL HENDERSON,1004626,4209,1002752,DANA GREEN,#007FFF
100020124,WALLHOUSE COFFE CO,1006510,SCOTT FEHLMAN,2384,Scott Fehlman,40.507921,-81.626093,JASON SHOFFSTALL,1003918,JASON SHOFFSTALL,1003918,2382,1002752,DANA GREEN,#FF6347
100162367,MR MIKES PUB & PIZZA,1132417,MIKE PERRUCCI,4214,Mike Perrucci,40.322766,-79.697681,BILLY BLATT,1128843,BILL HENDERSON,1004626,4209,1002752,DANA GREEN,#FF3030
722578307,Oliverio's Catering,1005492,JOSH GEE,4007,Josh Gee,39.273057,-80.266349,DAN SCHER,1003808,BILL HENDERSON,1004626,4209,1002752,DANA GREEN,#BA55D3
722501239,Choo-Choos Limited,1006822,ANTHONY TRISTANO,3805,Anthony Tristano,41.236449,-82.116186,MICHAEL SUNSERI,1012608,JASON SHOFFSTALL,1003918,2382,1002752,DANA GREEN,#FF69B4
928040001,Avion on the Water,1150715,JAMES ROBISON,4011,James Robison,40.987964,-80.688469,JASON SHOFFSTALL,1003918,JASON SHOFFSTALL,1003918,2382,1002752,DANA GREEN,#E6E6FA
100020851,OUT OF THE FIRE CAFE,1154783,ANGEL IVOCK,4483,Angel Ivock,40.100836,-79.364803,BILLY BLATT,1128843,BILL HENDERSON,1004626,4209,1002752,DANA GREEN,#FF69B4
722621154,The Nook,1001993,ANDY SMITH,4058,Andy Smith,40.467116,-79.964175,DAN SCHER,1003808,BILL HENDERSON,1004626,4209,1002752,DANA GREEN,#ADFF2F
722633829,Hellriegels Inn,1156669,MICHAEL SIMON,3798,Michael Simon,41.693225,-81.284669,GREG ENGLEHART,1113736,JASON SHOFFSTALL,1003918,2382,1002752,DANA GREEN,#E6E6FA
278170012,Parkersburg Country Club,1002320,JASON BAUER,3942,Jason Bauer,39.342304,-81.544629,CJ MORRIS,1151728,BILL HENDERSON,1004626,4209,1002752,DANA GREEN,#007FFF
836950001,SHREVE CUSTOM MEATS,1004399,MAT HARBERT,4012,Mat Harbert,40.681569,-82.021759,JASON SHOFFSTALL,1003918,JASON SHOFFSTALL,1003918,2382,1002752,DANA GREEN,#ADFF2F
722375396,The Howlin Bird,1152843,NICOLAS LOOMAN,4009,Nicolas Looman,40.875467,-81.4021,JASON SHOFFSTALL,1003918,JASON SHOFFSTALL,1003918,2382,1002752,DANA GREEN,#BA55D3
100024695,FRESH START DINER,1003048,DAVID POOLE,3800,David Poole,41.313001,-81.441741,GREG ENGLEHART,1113736,JASON SHOFFSTALL,1003918,2382,1002752,DANA GREEN,#A9A9A9
722641285,The Howlin Bird Massillon,1152843,NICOLAS LOOMAN,4009,Nicolas Looman,40.798886,-81.497127,JASON SHOFFSTALL,1003918,JASON SHOFFSTALL,1003918,2382,1002752,DANA GREEN,#BA55D3
722638494,County Line Saloon,1149733,SCOTT SCHAEFFER,4088,Scott Schaeffer,41.322134,-81.592611,MICHAEL SUNSERI,1012608,JASON SHOFFSTALL,1003918,2382,1002752,DANA GREEN,#FF7F50
150530001,ANGE NETTA'S,1150715,JAMES ROBISON,4011,James Robison,41.026733,-80.771944,JASON SHOFFSTALL,1003918,JASON SHOFFSTALL,1003918,2382,1002752,DANA GREEN,#E6E6FA
722391707,The George Washington,1144442,BRIAN MERWIN,4213,Brian Merwin,40.169997,-80.245145,DAN SCHER,1003808,BILL HENDERSON,1004626,4209,1002752,DANA GREEN,#ADFF2F
722526827,Schnitz Ale Brewery,1156768,MATTHEW DEPANTE,4092,Matt DePante,41.406391,-81.742266,MICHAEL SUNSERI,1012608,JASON SHOFFSTALL,1003918,2382,1002752,DANA GREEN,#FFD700
100021858,ARTURO'S BAR & GRILLE,1156768,MATTHEW DEPANTE,4092,Matt DePante,41.419431,-81.919003,MICHAEL SUNSERI,1012608,JASON SHOFFSTALL,1003918,2382,1002752,DANA GREEN,#FFD700
722501731,Capps Tavern,1156669,MICHAEL SIMON,3798,Michael Simon,41.687009,-81.176475,GREG ENGLEHART,1113736,JASON SHOFFSTALL,1003918,2382,1002752,DANA GREEN,#E6E6FA
722519404,Pit Take BBQ,1154783,ANGEL IVOCK,4483,Angel Ivock,40.313804,-79.548268,BILLY BLATT,1128843,BILL HENDERSON,1004626,4209,1002752,DANA GREEN,#FF69B4
100059185,DAVIS PLACE,1012245,TOM HERN,4195,Tom Hern,38.414619,-82.44403,CJ MORRIS,1151728,BILL HENDERSON,1004626,4209,1002752,DANA GREEN,#A9A9A9
722550013,Bella Terra Vineyards,1154783,ANGEL IVOCK,4483,Angel Ivock,40.018719,-78.501733,BILLY BLATT,1128843,BILL HENDERSON,1004626,4209,1002752,DANA GREEN,#FF69B4
100140759,Brickside - Bridgeport,1005492,JOSH GEE,4007,Josh Gee,39.282371,-80.277762,DAN SCHER,1003808,BILL HENDERSON,1004626,4209,1002752,DANA GREEN,#BA55D3
100016249,PAPOUS TAP & GRILLE,1003048,DAVID POOLE,3800,David Poole,41.315071,-81.355897,GREG ENGLEHART,1113736,JASON SHOFFSTALL,1003918,2382,1002752,DANA GREEN,#A9A9A9
436510039,YOURS TRULY-HUDSON,1149733,SCOTT SCHAEFFER,4088,Scott Schaeffer,41.238612,-81.44051,MICHAEL SUNSERI,1012608,JASON SHOFFSTALL,1003918,2382,1002752,DANA GREEN,#FF7F50
722584196,Parkview,1126586,RICK ARGOSO,4090,Rick Argoso,41.488629,-81.726224,MICHAEL SUNSERI,1012608,JASON SHOFFSTALL,1003918,2382,1002752,DANA GREEN,#ADFF2F
722532185,Red Wagon Bakery,1006822,ANTHONY TRISTANO,3805,Anthony Tristano,41.299575,-81.912177,MICHAEL SUNSERI,1012608,JASON SHOFFSTALL,1003918,2382,1002752,DANA GREEN,#FF69B4
873990001,CHINA WOK RESTAURANT,1114322,VINCE RICOTTILLI,3489,Vince Ricottilli,41.233459,-80.463804,JASON SHOFFSTALL,1003918,JASON SHOFFSTALL,1003918,2382,1002752,DANA GREEN,#FF3030
722408823,YOURS TRULY SOLON,1149733,SCOTT SCHAEFFER,4088,Scott Schaeffer,41.392099,-81.440858,MICHAEL SUNSERI,1012608,JASON SHOFFSTALL,1003918,2382,1002752,DANA GREEN,#FF7F50
352700029,CITY DINER,1006822,ANTHONY TRISTANO,3805,Anthony Tristano,41.394625,-82.004632,MICHAEL SUNSERI,1012608,JASON SHOFFSTALL,1003918,2382,1002752,DANA GREEN,#FF69B4
354980029,McClure's GP,1127280,TYLER KNECHT,4216,Tyler Knecht,38.843231,-82.249923,CJ MORRIS,1151728,BILL HENDERSON,1004626,4209,1002752,DANA GREEN,#00FF7F
100275233,PENN FISH & CHICKEN,1148746,JEREMY NEIDERHISER,4052,Jeremy Neiderhiser,40.441807,-79.879292,BILLY BLATT,1128843,BILL HENDERSON,1004626,4209,1002752,DANA GREEN,#FF7F50
722402127,SPIRITAN RETREAT CENTER,1152891,LEANDRA JONES,4331,Leandra Jones,40.29416,-80.053522,DAN SCHER,1003808,BILL HENDERSON,1004626,4209,1002752,DANA GREEN,#FFDEAD
722489858,Marinos American Eatery,1154783,ANGEL IVOCK,4483,Angel Ivock,40.278435,-79.50535,BILLY BLATT,1128843,BILL HENDERSON,1004626,4209,1002752,DANA GREEN,#FF69B4
722609241,WV Polo Club,1002320,JASON BAUER,3942,Jason Bauer,39.260567,-81.547361,CJ MORRIS,1151728,BILL HENDERSON,1004626,4209,1002752,DANA GREEN,#007FFF
261640023,VARIETY'S,1006510,SCOTT FEHLMAN,2384,Scott Fehlman,40.863975,-81.396715,JASON SHOFFSTALL,1003918,JASON SHOFFSTALL,1003918,2382,1002752,DANA GREEN,#FF6347
100219799,KENAN ADVANTAGE GROUP,1006510,SCOTT FEHLMAN,2384,Scott Fehlman,40.906724,-81.428963,JASON SHOFFSTALL,1003918,JASON SHOFFSTALL,1003918,2382,1002752,DANA GREEN,#FF6347
100053358,NIKIS QUICK SIX #2,1132417,MIKE PERRUCCI,4214,Mike Perrucci,40.607474,-79.559144,BILLY BLATT,1128843,BILL HENDERSON,1004626,4209,1002752,DANA GREEN,#FF3030
722592646,Central Dog House Diner,1139082,DAN GAGE,4006,Dan Gage,40.2725,-79.837858,DAN SCHER,1003808,BILL HENDERSON,1004626,4209,1002752,DANA GREEN,#007FFF
449320018,DJ'S 50'S & 60'S DINER,1005492,JOSH GEE,4007,Josh Gee,39.447978,-80.164842,DAN SCHER,1003808,BILL HENDERSON,1004626,4209,1002752,DANA GREEN,#BA55D3
446090038,DRAVENSTOTT'S RESTAURANT,1004399,MAT HARBERT,4012,Mat Harbert,40.84355,-81.768658,JASON SHOFFSTALL,1003918,JASON SHOFFSTALL,1003918,2382,1002752,DANA GREEN,#ADFF2F
722546016,On the Rocks Grill & Tavern,1161026,SHANNON HOWLEY,4059,Shannon Howley,39.988667,-81.161644,DAN SCHER,1003808,BILL HENDERSON,1004626,4209,1002752,DANA GREEN,#FF7F50
205240012,J P HENRY'S RESTAURANT,1002320,JASON BAUER,3942,Jason Bauer,39.300189,-81.511996,CJ MORRIS,1151728,BILL HENDERSON,1004626,4209,1002752,DANA GREEN,#007FFF
722622576,Legend Lake Golf Course,1007241,CHRIS MADIAS,3796,Chris Madias,41.569168,-81.242317,GREG ENGLEHART,1113736,JASON SHOFFSTALL,1003918,2382,1002752,DANA GREEN,#FF00FF
722594243,Ristorante Abruzzi,1144127,AARON SIMMONS,4187,Aaron Simmons,38.347971,-81.62521,CJ MORRIS,1151728,BILL HENDERSON,1004626,4209,1002752,DANA GREEN,#7F00FF
722527376,Hot Grillz Diner,1003048,DAVID POOLE,3800,David Poole,41.36628,-81.52684,GREG ENGLEHART,1113736,JASON SHOFFSTALL,1003918,2382,1002752,DANA GREEN,#A9A9A9
100148985,FORTY BAR & GRILLE,1144442,BRIAN MERWIN,4213,Brian Merwin,40.152516,-80.309464,DAN SCHER,1003808,BILL HENDERSON,1004626,4209,1002752,DANA GREEN,#ADFF2F
100187121,STEVIES DARI MART,1152307,KRISTEN STEWART,4054,Kristen Stewart,40.615753,-80.258638,BILLY BLATT,1128843,BILL HENDERSON,1004626,4209,1002752,DANA GREEN,#007FFF
722589711,Hangover BBQ,1161026,SHANNON HOWLEY,4059,Shannon Howley,40.12612,-80.63898,DAN SCHER,1003808,BILL HENDERSON,1004626,4209,1002752,DANA GREEN,#FF7F50
722602783,Burnies Deli On Main,1152307,KRISTEN STEWART,4054,Kristen Stewart,40.606614,-80.272315,BILLY BLATT,1128843,BILL HENDERSON,1004626,4209,1002752,DANA GREEN,#007FFF
722370155,The Meat Guyz,1139233,TOM MICCO,4051,Tom Micco,41.005852,-80.373199,BILLY BLATT,1128843,BILL HENDERSON,1004626,4209,1002752,DANA GREEN,#FFF0F5
100114870,Lightburns,1005492,JOSH GEE,4007,Josh Gee,38.948604,-80.493748,DAN SCHER,1003808,BILL HENDERSON,1004626,4209,1002752,DANA GREEN,#BA55D3
722603392,Gyro King,1012245,TOM HERN,4195,Tom Hern,38.421601,-82.445803,CJ MORRIS,1151728,BILL HENDERSON,1004626,4209,1002752,DANA GREEN,#A9A9A9
722583137,Anejo Mexican Restaurant,1114322,VINCE RICOTTILLI,3489,Vince Ricottilli,41.237844,-80.754234,JASON SHOFFSTALL,1003918,JASON SHOFFSTALL,1003918,2382,1002752,DANA GREEN,#FF3030
722516948,The Ohio Redwood,1002320,JASON BAUER,3942,Jason Bauer,39.279583,-81.620228,CJ MORRIS,1151728,BILL HENDERSON,1004626,4209,1002752,DANA GREEN,#007FFF
722653774,Ibiza Avon Lake,1006822,ANTHONY TRISTANO,3805,Anthony Tristano,41.504627,-82.048851,MICHAEL SUNSERI,1012608,JASON SHOFFSTALL,1003918,2382,1002752,DANA GREEN,#FF69B4
251020002,COZUMEL - INDEPENDENCE,1003048,DAVID POOLE,3800,David Poole,41.411196,-81.640667,GREG ENGLEHART,1113736,JASON SHOFFSTALL,1003918,2382,1002752,DANA GREEN,#A9A9A9
100102279,"WICKLIFFE LANES, INC",1153212,NICHOLAS CAMPBELL,3797,Nicholas Campbell,41.617487,-81.459169,GREG ENGLEHART,1113736,JASON SHOFFSTALL,1003918,2382,1002752,DANA GREEN,#4682B4
722493852,Jo Jo's Steakbar,1007241,CHRIS MADIAS,3796,Chris Madias,41.432003,-81.393405,GREG ENGLEHART,1113736,JASON SHOFFSTALL,1003918,2382,1002752,DANA GREEN,#FF00FF
100273224,MARY'S DINER- MADISON,1003048,DAVID POOLE,3800,David Poole,41.80356,-81.073985,GREG ENGLEHART,1113736,JASON SHOFFSTALL,1003918,2382,1002752,DANA GREEN,#A9A9A9
722562688,El Patron,1006822,ANTHONY TRISTANO,3805,Anthony Tristano,41.347653,-82.066897,MICHAEL SUNSERI,1012608,JASON SHOFFSTALL,1003918,2382,1002752,DANA GREEN,#FF69B4
722606618,Los Cabos,1127444,CORINNE BERRETT,3556,Corinne Berrett,41.107303,-81.566838,JASON SHOFFSTALL,1003918,JASON SHOFFSTALL,1003918,2382,1002752,DANA GREEN,#00FF00
722583527,Venetian Restaurant,1012245,TOM HERN,4195,Tom Hern,38.4325,-82.14776,CJ MORRIS,1151728,BILL HENDERSON,1004626,4209,1002752,DANA GREEN,#A9A9A9
436510047,YOURS TRULY-MAYFIELD VILLAGE,1149733,SCOTT SCHAEFFER,4088,Scott Schaeffer,41.538965,-81.438391,MICHAEL SUNSERI,1012608,JASON SHOFFSTALL,1003918,2382,1002752,DANA GREEN,#FF7F50
100222302,MOONLITE DRIVE-IN THEATRE,1139233,TOM MICCO,4051,Tom Micco,41.168319,-79.113154,BILLY BLATT,1128843,BILL HENDERSON,1004626,4209,1002752,DANA GREEN,#FFF0F5
220290002,HOLIDAY ITALIAN SAUSAGE,1156768,MATTHEW DEPANTE,4092,Matt DePante,41.42298,-81.785373,MICHAEL SUNSERI,1012608,JASON SHOFFSTALL,1003918,2382,1002752,DANA GREEN,#FFD700
722594477,Caputis Sherdian Pub,1142044,JOHN D'ROZARIO,3802,John Drozario,42.98078,-78.846742,GREG ENGLEHART,1113736,JASON SHOFFSTALL,1003918,2382,1002752,DANA GREEN,#B22222
827390001,CROSSROADS RESTAURANT (THE),1154683,DAVID PHILLIPS,4422,David Phillips,40.640422,-81.355465,JASON SHOFFSTALL,1003918,JASON SHOFFSTALL,1003918,2382,1002752,DANA GREEN,#00CED1
722371968,El Tapatio Mexican Restaurant,1004399,MAT HARBERT,4012,Mat Harbert,40.847095,-81.927924,JASON SHOFFSTALL,1003918,JASON SHOFFSTALL,1003918,2382,1002752,DANA GREEN,#ADFF2F
722516322,Your Deli,1154684,ROBERT MCKEE,3575,Robert McKee,41.398375,-82.222894,MICHAEL SUNSERI,1012608,JASON SHOFFSTALL,1003918,2382,1002752,DANA GREEN,#7F00FF
813090002,DEMETRIOS' FAMILY RESTAURANT,1005616,BILL SMITH,4086,Bill Smith,41.351746,-81.684506,MICHAEL SUNSERI,1012608,JASON SHOFFSTALL,1003918,2382,1002752,DANA GREEN,#FFA500
722616181,Crossroads Pizza,1006510,SCOTT FEHLMAN,2384,Scott Fehlman,40.689383,-81.161544,JASON SHOFFSTALL,1003918,JASON SHOFFSTALL,1003918,2382,1002752,DANA GREEN,#FF6347
722604507,HiHo Brewing Co,1147053,SHAUN NELSON,4013,Shaun Nelson,41.127981,-81.485259,JASON SHOFFSTALL,1003918,JASON SHOFFSTALL,1003918,2382,1002752,DANA GREEN,#FFF0F5
100047148,Zuppas Delicatessen,1156224,AMANDA HILL,4671,Amanda Hill,40.616031,-80.055245,BILLY BLATT,1128843,BILL HENDERSON,1004626,4209,1002752,DANA GREEN,#D2691E
722642685,Uncle Abe's Chicken,1156768,MATTHEW DEPANTE,4092,Matt DePante,41.415906,-81.710545,MICHAEL SUNSERI,1012608,JASON SHOFFSTALL,1003918,2382,1002752,DANA GREEN,#FFD700
100242102,Oakdale Diner,1144442,BRIAN MERWIN,4213,Brian Merwin,40.398427,-80.186102,DAN SCHER,1003808,BILL HENDERSON,1004626,4209,1002752,DANA GREEN,#ADFF2F
255070001,NEST FAMILY RESTAURANT (THE),1154684,ROBERT MCKEE,3575,Robert McKee,41.424752,-82.320791,MICHAEL SUNSERI,1012608,JASON SHOFFSTALL,1003918,2382,1002752,DANA GREEN,#7F00FF
722552489,Gabbys 152 Tortilla Street,1012245,TOM HERN,4195,Tom Hern,38.32973,-82.451618,CJ MORRIS,1151728,BILL HENDERSON,1004626,4209,1002752,DANA GREEN,#A9A9A9
884220002,PINZONE'S MARKET FRESH MEATS,1156768,MATTHEW DEPANTE,4092,Matt DePante,41.399216,-81.688702,MICHAEL SUNSERI,1012608,JASON SHOFFSTALL,1003918,2382,1002752,DANA GREEN,#FFD700
100171986,MARIO'S FISHBOWL- SUNCREST,1144442,BRIAN MERWIN,4213,Brian Merwin,39.654332,-79.970616,DAN SCHER,1003808,BILL HENDERSON,1004626,4209,1002752,DANA GREEN,#ADFF2F
100289023,9ERS DINER,1143541,CLIFFORD STENZEL,4093,CJ Stenzel,41.273792,-81.836932,MICHAEL SUNSERI,1012608,JASON SHOFFSTALL,1003918,2382,1002752,DANA GREEN,#FF0000
722327955,Bombshells Burgers & BBQ,1012245,TOM HERN,4195,Tom Hern,38.389545,-82.454486,CJ MORRIS,1151728,BILL HENDERSON,1004626,4209,1002752,DANA GREEN,#A9A9A9
722559912,Holiday Inn Cleveland Clinic,1126586,RICK ARGOSO,4090,Rick Argoso,41.503354,-81.626332,MICHAEL SUNSERI,1012608,JASON SHOFFSTALL,1003918,2382,1002752,DANA GREEN,#ADFF2F
722369425,The Farmer's Table,1143541,CLIFFORD STENZEL,4093,CJ Stenzel,41.135704,-81.863947,MICHAEL SUNSERI,1012608,JASON SHOFFSTALL,1003918,2382,1002752,DANA GREEN,#FF0000
100258074,Neville Roller Drome,1001993,ANDY SMITH,4058,Andy Smith,40.508883,-80.127531,DAN SCHER,1003808,BILL HENDERSON,1004626,4209,1002752,DANA GREEN,#ADFF2F
722411304,NEW YORK BAGEL AND DELI,1146883,KRISTIAN YOUNG,3803,Kristian Young,42.097631,-80.168825,GREG ENGLEHART,1113736,JASON SHOFFSTALL,1003918,2382,1002752,DANA GREEN,#A9A9A9
722610770,People's Indian Restaurant,1132417,MIKE PERRUCCI,4214,Mike Perrucci,40.46484,-79.941249,BILLY BLATT,1128843,BILL HENDERSON,1004626,4209,1002752,DANA GREEN,#FF3030
100137442,"19TH STREET MEAT MARKET, LLC",1002320,JASON BAUER,3942,Jason Bauer,39.272179,-81.535632,CJ MORRIS,1151728,BILL HENDERSON,1004626,4209,1002752,DANA GREEN,#007FFF
722511380,Ellen's Ice Cream,1144127,AARON SIMMONS,4187,Aaron Simmons,38.350447,-81.634275,CJ MORRIS,1151728,BILL HENDERSON,1004626,4209,1002752,DANA GREEN,#7F00FF
100076220,ARMSTRONG'S RESTAURANT,1152891,LEANDRA JONES,4331,Leandra Jones,40.357978,-80.001333,DAN SCHER,1003808,BILL HENDERSON,1004626,4209,1002752,DANA GREEN,#FFDEAD
722603185,Bistro to Go - Cater,1148746,JEREMY NEIDERHISER,4052,Jeremy Neiderhiser,40.45336,-80.000998,BILLY BLATT,1128843,BILL HENDERSON,1004626,4209,1002752,DANA GREEN,#FF7F50
722637511,Coco Locos Willoughby,1153212,NICHOLAS CAMPBELL,3797,Nicholas Campbell,41.626053,-81.434747,GREG ENGLEHART,1113736,JASON SHOFFSTALL,1003918,2382,1002752,DANA GREEN,#4682B4
722531311,Dino's at Pine Ridge,1153212,NICHOLAS CAMPBELL,3797,Nicholas Campbell,41.60593,-81.448712,GREG ENGLEHART,1113736,JASON SHOFFSTALL,1003918,2382,1002752,DANA GREEN,#4682B4
100142699,RUDY'S PUB,1007192,ADAM PETERSON,4089,Adam Peterson,41.500003,-81.565292,GREG ENGLEHART,1113736,JASON SHOFFSTALL,1003918,2382,1002752,DANA GREEN,#A52A2A
722518151,"Yihi Japan - Canton, OH",1152843,NICOLAS LOOMAN,4009,Nicolas Looman,40.85615,-81.428533,JASON SHOFFSTALL,1003918,JASON SHOFFSTALL,1003918,2382,1002752,DANA GREEN,#BA55D3
100129790,WHISKEY ISLAND STILL & EATERY,1126586,RICK ARGOSO,4090,Rick Argoso,41.492727,-81.72732,MICHAEL SUNSERI,1012608,JASON SHOFFSTALL,1003918,2382,1002752,DANA GREEN,#ADFF2F
100246434,BACON BOURBON & BEER MORGANTOWN,1144442,BRIAN MERWIN,4213,Brian Merwin,39.653559,-79.941894,DAN SCHER,1003808,BILL HENDERSON,1004626,4209,1002752,DANA GREEN,#ADFF2F
722372439,JANOSKI FARMS,1152307,KRISTEN STEWART,4054,Kristen Stewart,40.491444,-80.330895,BILLY BLATT,1128843,BILL HENDERSON,1004626,4209,1002752,DANA GREEN,#007FFF
722324237,The Ice Plant,1139082,DAN GAGE,4006,Dan Gage,39.799623,-79.912834,DAN SCHER,1003808,BILL HENDERSON,1004626,4209,1002752,DANA GREEN,#007FFF
722582231,Medina Country Club,1143541,CLIFFORD STENZEL,4093,CJ Stenzel,41.099275,-81.889602,MICHAEL SUNSERI,1012608,JASON SHOFFSTALL,1003918,2382,1002752,DANA GREEN,#FF0000
670400018,NAK'S EATERY & DRINKERY,1156768,MATTHEW DEPANTE,4092,Matt DePante,41.408422,-81.80394,MICHAEL SUNSERI,1012608,JASON SHOFFSTALL,1003918,2382,1002752,DANA GREEN,#FFD700
722328467,Bennys on the Hill,1005492,JOSH GEE,4007,Josh Gee,39.4449,-80.23934,DAN SCHER,1003808,BILL HENDERSON,1004626,4209,1002752,DANA GREEN,#BA55D3
722547833,Don Mexcal,1006822,ANTHONY TRISTANO,3805,Anthony Tristano,41.281757,-82.063758,MICHAEL SUNSERI,1012608,JASON SHOFFSTALL,1003918,2382,1002752,DANA GREEN,#FF69B4
722633983,Hungry Bee at Tanglewood,1003048,DAVID POOLE,3800,David Poole,41.39863,-81.330564,GREG ENGLEHART,1113736,JASON SHOFFSTALL,1003918,2382,1002752,DANA GREEN,#A9A9A9
722539879,Quinns,1156648,TONY BEHRENS,4091,Tony Behrens,41.477734,-81.901764,MICHAEL SUNSERI,1012608,JASON SHOFFSTALL,1003918,2382,1002752,DANA GREEN,#FF7F50
722493522,Tavern Six,1007241,CHRIS MADIAS,3796,Chris Madias,41.58403,-81.37123,GREG ENGLEHART,1113736,JASON SHOFFSTALL,1003918,2382,1002752,DANA GREEN,#FF00FF
722554249,River Expeditions,1009205,BRIAN MARSHALL,4199,Brian Marshall,38.012657,-81.120172,CJ MORRIS,1151728,BILL HENDERSON,1004626,4209,1002752,DANA GREEN,#FF1493
722559633,Cast Aways Bar & Grill,1007241,CHRIS MADIAS,3796,Chris Madias,41.673719,-81.429261,GREG ENGLEHART,1113736,JASON SHOFFSTALL,1003918,2382,1002752,DANA GREEN,#FF00FF
722398309,TAP THAT,1144442,BRIAN MERWIN,4213,Brian Merwin,40.348145,-80.155373,DAN SCHER,1003808,BILL HENDERSON,1004626,4209,1002752,DANA GREEN,#ADFF2F
722527132,Vermilion Boat Club,1154684,ROBERT MCKEE,3575,Robert McKee,41.422065,-82.362393,MICHAEL SUNSERI,1012608,JASON SHOFFSTALL,1003918,2382,1002752,DANA GREEN,#7F00FF
722497497,1861 Public House,1012245,TOM HERN,4195,Tom Hern,38.408979,-82.295066,CJ MORRIS,1151728,BILL HENDERSON,1004626,4209,1002752,DANA GREEN,#A9A9A9
100107058,DER DOG HAUS,1002320,JASON BAUER,3942,Jason Bauer,39.268123,-81.52299,CJ MORRIS,1151728,BILL HENDERSON,1004626,4209,1002752,DANA GREEN,#007FFF
100039945,LUIGIES PIZZERIA,1156669,MICHAEL SIMON,3798,Michael Simon,41.860535,-80.78414,GREG ENGLEHART,1113736,JASON SHOFFSTALL,1003918,2382,1002752,DANA GREEN,#E6E6FA
722583417,The City Diner,1126586,RICK ARGOSO,4090,Rick Argoso,41.439838,-81.721568,MICHAEL SUNSERI,1012608,JASON SHOFFSTALL,1003918,2382,1002752,DANA GREEN,#ADFF2F
561080011,MYERS CATERING,1139082,DAN GAGE,4006,Dan Gage,39.819555,-79.75869,DAN SCHER,1003808,BILL HENDERSON,1004626,4209,1002752,DANA GREEN,#007FFF
100059036,JAKES ON THE LAKE,1156648,TONY BEHRENS,4091,Tony Behrens,41.51364,-82.0058,MICHAEL SUNSERI,1012608,JASON SHOFFSTALL,1003918,2382,1002752,DANA GREEN,#FF7F50
100169745,Kimberley Ashlee Catering - Terrene,1001993,ANDY SMITH,4058,Andy Smith,40.433706,-80.004724,DAN SCHER,1003808,BILL HENDERSON,1004626,4209,1002752,DANA GREEN,#ADFF2F
722521456,#188 Jerry's Run Food Mart,1127280,TYLER KNECHT,4216,Tyler Knecht,38.64504,-82.164405,CJ MORRIS,1151728,BILL HENDERSON,1004626,4209,1002752,DANA GREEN,#00FF7F
100166014,Coach's Sports Bar and Grill,1146883,KRISTIAN YOUNG,3803,Kristian Young,42.092358,-80.092915,GREG ENGLEHART,1113736,JASON SHOFFSTALL,1003918,2382,1002752,DANA GREEN,#A9A9A9
722571275,Ferraros Family Restaurant,1152843,NICOLAS LOOMAN,4009,Nicolas Looman,40.780434,-81.420271,JASON SHOFFSTALL,1003918,JASON SHOFFSTALL,1003918,2382,1002752,DANA GREEN,#BA55D3
100115294,RACHEL'S ROADHOUSE - MERCER,1139233,TOM MICCO,4051,Tom Micco,41.153204,-80.224419,BILLY BLATT,1128843,BILL HENDERSON,1004626,4209,1002752,DANA GREEN,#FFF0F5
722606475,Zepp's Pizza,1006510,SCOTT FEHLMAN,2384,Scott Fehlman,40.867886,-81.39858,JASON SHOFFSTALL,1003918,JASON SHOFFSTALL,1003918,2382,1002752,DANA GREEN,#FF6347
722603043,Hitchin Post,1154683,DAVID PHILLIPS,4422,David Phillips,40.748825,-81.151364,JASON SHOFFSTALL,1003918,JASON SHOFFSTALL,1003918,2382,1002752,DANA GREEN,#00CED1
722405855,GIBBS BUTCHER & BREWS,1006822,ANTHONY TRISTANO,3805,Anthony Tristano,41.37353,-81.90177,MICHAEL SUNSERI,1012608,JASON SHOFFSTALL,1003918,2382,1002752,DANA GREEN,#FF69B4
722531344,Dinos Restaurant,1153212,NICHOLAS CAMPBELL,3797,Nicholas Campbell,41.619861,-81.456686,GREG ENGLEHART,1113736,JASON SHOFFSTALL,1003918,2382,1002752,DANA GREEN,#4682B4
722381482,Honeymoon Grille,1147053,SHAUN NELSON,4013,Shaun Nelson,41.005487,-81.555906,JASON SHOFFSTALL,1003918,JASON SHOFFSTALL,1003918,2382,1002752,DANA GREEN,#FFF0F5
722512290,Hook Fish & Chicken McKees,1148746,JEREMY NEIDERHISER,4052,Jeremy Neiderhiser,40.472438,-80.073246,BILLY BLATT,1128843,BILL HENDERSON,1004626,4209,1002752,DANA GREEN,#FF7F50
722541316,Penn Brewery North Side,1156224,AMANDA HILL,4671,Amanda Hill,40.456826,-79.991411,BILLY BLATT,1128843,BILL HENDERSON,1004626,4209,1002752,DANA GREEN,#D2691E
722609908,9ers Breakfast Brew BBQ,1143541,CLIFFORD STENZEL,4093,CJ Stenzel,41.0245,-81.727908,MICHAEL SUNSERI,1012608,JASON SHOFFSTALL,1003918,2382,1002752,DANA GREEN,#FF0000
100251146,TONY'S QUALITY MEATS,1009205,BRIAN MARSHALL,4199,Brian Marshall,37.818211,-81.191613,CJ MORRIS,1151728,BILL HENDERSON,1004626,4209,1002752,DANA GREEN,#FF1493
722369059,Bowl Thyme,1154684,ROBERT MCKEE,3575,Robert McKee,41.423991,-82.353003,MICHAEL SUNSERI,1012608,JASON SHOFFSTALL,1003918,2382,1002752,DANA GREEN,#7F00FF
100197402,ICHIBAN,1144127,AARON SIMMONS,4187,Aaron Simmons,38.349408,-81.635957,CJ MORRIS,1151728,BILL HENDERSON,1004626,4209,1002752,DANA GREEN,#7F00FF
100241631,CINDA'S RESTAURANT,1003048,DAVID POOLE,3800,David Poole,41.461083,-81.072955,GREG ENGLEHART,1113736,JASON SHOFFSTALL,1003918,2382,1002752,DANA GREEN,#A9A9A9
100114339,FIESTA JALAPENOS,1143541,CLIFFORD STENZEL,4093,CJ Stenzel,41.162157,-81.862379,MICHAEL SUNSERI,1012608,JASON SHOFFSTALL,1003918,2382,1002752,DANA GREEN,#FF0000
100243093,Hastee Tastee,1154684,ROBERT MCKEE,3575,Robert McKee,41.400773,-82.221722,MICHAEL SUNSERI,1012608,JASON SHOFFSTALL,1003918,2382,1002752,DANA GREEN,#7F00FF
722615261,Doubletree By Hilton Huntington,1012245,TOM HERN,4195,Tom Hern,38.422221,-82.442375,CJ MORRIS,1151728,BILL HENDERSON,1004626,4209,1002752,DANA GREEN,#A9A9A9
100062350,WIGGY'S RESTAURANTE,1001993,ANDY SMITH,4058,Andy Smith,40.427534,-80.054504,DAN SCHER,1003808,BILL HENDERSON,1004626,4209,1002752,DANA GREEN,#ADFF2F
100147008,Chartiers Country Club,1001993,ANDY SMITH,4058,Andy Smith,40.43508,-80.091113,DAN SCHER,1003808,BILL HENDERSON,1004626,4209,1002752,DANA GREEN,#ADFF2F
100150533,BECKY'S,1126586,RICK ARGOSO,4090,Rick Argoso,41.503658,-81.679322,MICHAEL SUNSERI,1012608,JASON SHOFFSTALL,1003918,2382,1002752,DANA GREEN,#ADFF2F
100158805,ASIAN CHAO #F62,1153212,NICHOLAS CAMPBELL,3797,Nicholas Campbell,41.501188,-81.494208,GREG ENGLEHART,1113736,JASON SHOFFSTALL,1003918,2382,1002752,DANA GREEN,#4682B4
100118403,GREAT AMERICAN PIZZA CO (THE),1143541,CLIFFORD STENZEL,4093,CJ Stenzel,41.247514,-81.841148,MICHAEL SUNSERI,1012608,JASON SHOFFSTALL,1003918,2382,1002752,DANA GREEN,#FF0000
722521738,The Grill On Third,1003551,DAVE JENKINS,4191,Dave Jenkins,38.423718,-82.433597,CJ MORRIS,1151728,BILL HENDERSON,1004626,4209,1002752,DANA GREEN,#D2691E
722522080,Pepper Italian Restaurant,1156648,TONY BEHRENS,4091,Tony Behrens,41.484175,-81.775489,MICHAEL SUNSERI,1012608,JASON SHOFFSTALL,1003918,2382,1002752,DANA GREEN,#FF7F50
100038038,La Terraza Tallmadge,1147053,SHAUN NELSON,4013,Shaun Nelson,41.096107,-81.388213,JASON SHOFFSTALL,1003918,JASON SHOFFSTALL,1003918,2382,1002752,DANA GREEN,#FFF0F5
722525103,Teriyaki Denison,1006822,ANTHONY TRISTANO,3805,Anthony Tristano,41.462031,-81.737054,MICHAEL SUNSERI,1012608,JASON SHOFFSTALL,1003918,2382,1002752,DANA GREEN,#FF69B4
100203629,CAFE MELISSA,1006822,ANTHONY TRISTANO,3805,Anthony Tristano,41.493256,-82.024825,MICHAEL SUNSERI,1012608,JASON SHOFFSTALL,1003918,2382,1002752,DANA GREEN,#FF69B4
722570985,Middlefield Cafe and Diner,1003048,DAVID POOLE,3800,David Poole,41.463008,-81.072951,GREG ENGLEHART,1113736,JASON SHOFFSTALL,1003918,2382,1002752,DANA GREEN,#A9A9A9
722602956,Fish & Chicken Boss,1148746,JEREMY NEIDERHISER,4052,Jeremy Neiderhiser,40.395183,-79.986905,BILLY BLATT,1128843,BILL HENDERSON,1004626,4209,1002752,DANA GREEN,#FF7F50
125280001,CAP'N TACO,1156768,MATTHEW DEPANTE,4092,Matt DePante,41.418537,-81.810753,MICHAEL SUNSERI,1012608,JASON SHOFFSTALL,1003918,2382,1002752,DANA GREEN,#FFD700
722401158,RINNIE'S PLACE,1139082,DAN GAGE,4006,Dan Gage,40.107557,-79.770719,DAN SCHER,1003808,BILL HENDERSON,1004626,4209,1002752,DANA GREEN,#007FFF
100198484,WITTEN FARM MARKET,1002320,JASON BAUER,3942,Jason Bauer,39.908357,-82.900828,CJ MORRIS,1151728,BILL HENDERSON,1004626,4209,1002752,DANA GREEN,#007FFF
100284249,BIG EGGZ,1156768,MATTHEW DEPANTE,4092,Matt DePante,41.429358,-81.889052,MICHAEL SUNSERI,1012608,JASON SHOFFSTALL,1003918,2382,1002752,DANA GREEN,#FFD700
239720003,COMFORT SUITES-BERLIN,1004399,MAT HARBERT,4012,Mat Harbert,40.56234,-81.79438,JASON SHOFFSTALL,1003918,JASON SHOFFSTALL,1003918,2382,1002752,DANA GREEN,#ADFF2F
722621156,48 Donley,1005492,JOSH GEE,4007,Josh Gee,39.625574,-79.962681,DAN SCHER,1003808,BILL HENDERSON,1004626,4209,1002752,DANA GREEN,#BA55D3
722485686,Red Wagon Farm,1006822,ANTHONY TRISTANO,3805,Anthony Tristano,41.299575,-81.912177,MICHAEL SUNSERI,1012608,JASON SHOFFSTALL,1003918,2382,1002752,DANA GREEN,#FF69B4
100097726,NAUTICA CAFE,1126586,RICK ARGOSO,4090,Rick Argoso,41.496173,-81.704093,MICHAEL SUNSERI,1012608,JASON SHOFFSTALL,1003918,2382,1002752,DANA GREEN,#ADFF2F
100213081,Country Mart,1006510,SCOTT FEHLMAN,2384,Scott Fehlman,40.623543,-81.784421,JASON SHOFFSTALL,1003918,JASON SHOFFSTALL,1003918,2382,1002752,DANA GREEN,#FF6347
100059024,FOOD FOR THOUGHT,1007241,CHRIS MADIAS,3796,Chris Madias,41.662305,-81.369982,GREG ENGLEHART,1113736,JASON SHOFFSTALL,1003918,2382,1002752,DANA GREEN,#FF00FF
100137323,DON PANCHO'S,1154683,DAVID PHILLIPS,4422,David Phillips,40.901974,-81.140586,JASON SHOFFSTALL,1003918,JASON SHOFFSTALL,1003918,2382,1002752,DANA GREEN,#00CED1
610020011,CARMINO'S,1156768,MATTHEW DEPANTE,4092,Matt DePante,41.428072,-81.71733,MICHAEL SUNSERI,1012608,JASON SHOFFSTALL,1003918,2382,1002752,DANA GREEN,#FFD700
100055215,DONNAS DINER,1114322,VINCE RICOTTILLI,3489,Vince Ricottilli,41.232943,-80.509164,JASON SHOFFSTALL,1003918,JASON SHOFFSTALL,1003918,2382,1002752,DANA GREEN,#FF3030
722633351,Undo's Weirton,1161026,SHANNON HOWLEY,4059,Shannon Howley,40.397192,-80.549038,DAN SCHER,1003808,BILL HENDERSON,1004626,4209,1002752,DANA GREEN,#FF7F50
722548130,Scoop Dogg Dairy Bar,1003551,DAVE JENKINS,4191,Dave Jenkins,38.617331,-82.842721,CJ MORRIS,1151728,BILL HENDERSON,1004626,4209,1002752,DANA GREEN,#D2691E
722402966,UPTOWN JOE,1006510,SCOTT FEHLMAN,2384,Scott Fehlman,40.837652,-81.259499,JASON SHOFFSTALL,1003918,JASON SHOFFSTALL,1003918,2382,1002752,DANA GREEN,#FF6347
722508531,Los Bajitos Mexican Restaurant & Grill,1144442,BRIAN MERWIN,4213,Brian Merwin,40.289276,-80.173908,DAN SCHER,1003808,BILL HENDERSON,1004626,4209,1002752,DANA GREEN,#ADFF2F
722616299,Bake Shop Bakes,1140956,MICHAEL HUBER,4212,Michael Huber,40.671022,-78.240718,BILLY BLATT,1128843,BILL HENDERSON,1004626,4209,1002752,DANA GREEN,#FF007F
722377030,Fizzlestix,1152843,NICOLAS LOOMAN,4009,Nicolas Looman,40.795158,-81.473425,JASON SHOFFSTALL,1003918,JASON SHOFFSTALL,1003918,2382,1002752,DANA GREEN,#BA55D3
100070703,Lil Moes,1005492,JOSH GEE,4007,Josh Gee,39.152122,-80.039518,DAN SCHER,1003808,BILL HENDERSON,1004626,4209,1002752,DANA GREEN,#BA55D3
100263944,Neighbor's Bar and Grill,1156768,MATTHEW DEPANTE,4092,Matt DePante,41.43374,-81.801341,MICHAEL SUNSERI,1012608,JASON SHOFFSTALL,1003918,2382,1002752,DANA GREEN,#FFD700
100131433,PHO VINH LONG,1127280,TYLER KNECHT,4216,Tyler Knecht,38.367809,-81.696046,CJ MORRIS,1151728,BILL HENDERSON,1004626,4209,1002752,DANA GREEN,#00FF7F
100032070,GERMAN VILLAGE MARKET,1006510,SCOTT FEHLMAN,2384,Scott Fehlman,40.560865,-81.79912,JASON SHOFFSTALL,1003918,JASON SHOFFSTALL,1003918,2382,1002752,DANA GREEN,#FF6347
184070001,RICE BOWL,1012245,TOM HERN,4195,Tom Hern,38.418557,-81.792596,CJ MORRIS,1151728,BILL HENDERSON,1004626,4209,1002752,DANA GREEN,#A9A9A9
722498154,Perry Village Market & Cafe,1156669,MICHAEL SIMON,3798,Michael Simon,41.769943,-81.146773,GREG ENGLEHART,1113736,JASON SHOFFSTALL,1003918,2382,1002752,DANA GREEN,#E6E6FA
722351876,Pavilion Grill and Tavern,1154684,ROBERT MCKEE,3575,Robert McKee,41.422078,-82.365219,MICHAEL SUNSERI,1012608,JASON SHOFFSTALL,1003918,2382,1002752,DANA GREEN,#7F00FF
100114957,Yaba's,1148746,JEREMY NEIDERHISER,4052,Jeremy Neiderhiser,40.438717,-79.990157,BILLY BLATT,1128843,BILL HENDERSON,1004626,4209,1002752,DANA GREEN,#FF7F50
100056532,FRANK & SHIRLEY'S RESTAURANT,1001993,ANDY SMITH,4058,Andy Smith,40.388382,-79.996662,DAN SCHER,1003808,BILL HENDERSON,1004626,4209,1002752,DANA GREEN,#ADFF2F
100114343,DIAMOND DELI,1127444,CORINNE BERRETT,3556,Corinne Berrett,41.07568,-81.522792,JASON SHOFFSTALL,1003918,JASON SHOFFSTALL,1003918,2382,1002752,DANA GREEN,#00FF00
722549055,Carters Table,1140956,MICHAEL HUBER,4212,Michael Huber,40.796956,-77.855707,BILLY BLATT,1128843,BILL HENDERSON,1004626,4209,1002752,DANA GREEN,#FF007F
722537804,Sunoco Esawy,1006822,ANTHONY TRISTANO,3805,Anthony Tristano,41.351528,-81.90509,MICHAEL SUNSERI,1012608,JASON SHOFFSTALL,1003918,2382,1002752,DANA GREEN,#FF69B4
100121765,HARBOR INN,1154783,ANGEL IVOCK,4483,Angel Ivock,40.201365,-79.338586,BILLY BLATT,1128843,BILL HENDERSON,1004626,4209,1002752,DANA GREEN,#FF69B4
722531983,Teriyaki Columbus,1006822,ANTHONY TRISTANO,3805,Anthony Tristano,39.949157,-82.957663,MICHAEL SUNSERI,1012608,JASON SHOFFSTALL,1003918,2382,1002752,DANA GREEN,#FF69B4
100024869,Sterks Catering,1154684,ROBERT MCKEE,3575,Robert McKee,41.294331,-82.23806,MICHAEL SUNSERI,1012608,JASON SHOFFSTALL,1003918,2382,1002752,DANA GREEN,#7F00FF
722611230,Old School Pizza And Wings,1156648,TONY BEHRENS,4091,Tony Behrens,41.494096,-82.018902,MICHAEL SUNSERI,1012608,JASON SHOFFSTALL,1003918,2382,1002752,DANA GREEN,#FF7F50
722532818,O'Neill Center,1002320,JASON BAUER,3942,Jason Bauer,39.417611,-81.452715,CJ MORRIS,1151728,BILL HENDERSON,1004626,4209,1002752,DANA GREEN,#007FFF
722323080,Bricco West,1127444,CORINNE BERRETT,3556,Corinne Berrett,41.130147,-81.614842,JASON SHOFFSTALL,1003918,JASON SHOFFSTALL,1003918,2382,1002752,DANA GREEN,#00FF00
722409611,COUGHLIN'S LAW KITCHEN & ALE HOUSE,1001993,ANDY SMITH,4058,Andy Smith,40.429101,-80.006567,DAN SCHER,1003808,BILL HENDERSON,1004626,4209,1002752,DANA GREEN,#ADFF2F
100157624,PUB IN THE PARK,1132417,MIKE PERRUCCI,4214,Mike Perrucci,40.42093,-79.898164,BILLY BLATT,1128843,BILL HENDERSON,1004626,4209,1002752,DANA GREEN,#FF3030
722515953,Southern  Thangs,1127444,CORINNE BERRETT,3556,Corinne Berrett,41.1078,-81.618085,JASON SHOFFSTALL,1003918,JASON SHOFFSTALL,1003918,2382,1002752,DANA GREEN,#00FF00
722582919,Charlie Staples Barbecue Pitt Boss,1114322,VINCE RICOTTILLI,3489,Vince Ricottilli,41.106478,-80.655075,JASON SHOFFSTALL,1003918,JASON SHOFFSTALL,1003918,2382,1002752,DANA GREEN,#FF3030
736420001,Best Friends Restaurant,1156669,MICHAEL SIMON,3798,Michael Simon,41.771754,-80.946703,GREG ENGLEHART,1113736,JASON SHOFFSTALL,1003918,2382,1002752,DANA GREEN,#E6E6FA
367050002,SUPER CHINA BUFFET,1012245,TOM HERN,4195,Tom Hern,38.485193,-82.650234,CJ MORRIS,1151728,BILL HENDERSON,1004626,4209,1002752,DANA GREEN,#A9A9A9
722354486,Carnegie Coffee Company,1001993,ANDY SMITH,4058,Andy Smith,40.407846,-80.085996,DAN SCHER,1003808,BILL HENDERSON,1004626,4209,1002752,DANA GREEN,#ADFF2F
722593730,Al's Tavern,1140956,MICHAEL HUBER,4212,Michael Huber,40.498804,-78.410998,BILLY BLATT,1128843,BILL HENDERSON,1004626,4209,1002752,DANA GREEN,#FF007F
722333093,Sushi Fuku S Craig St,1148746,JEREMY NEIDERHISER,4052,Jeremy Neiderhiser,40.444832,-79.948654,BILLY BLATT,1128843,BILL HENDERSON,1004626,4209,1002752,DANA GREEN,#FF7F50
722616490,Bruno's Spotted Hare,1012245,TOM HERN,4195,Tom Hern,38.409108,-82.294935,CJ MORRIS,1151728,BILL HENDERSON,1004626,4209,1002752,DANA GREEN,#A9A9A9
722641426,The Schoolhouse Hotel,1009205,BRIAN MARSHALL,4199,Brian Marshall,37.79816,-80.31029,CJ MORRIS,1151728,BILL HENDERSON,1004626,4209,1002752,DANA GREEN,#FF1493
722488284,Ridgewood Kitchen & Spirits,1007241,CHRIS MADIAS,3796,Chris Madias,41.672807,-81.282227,GREG ENGLEHART,1113736,JASON SHOFFSTALL,1003918,2382,1002752,DANA GREEN,#FF00FF
436510055,YOURS TRULY-BEACHWOOD,1149733,SCOTT SCHAEFFER,4088,Scott Schaeffer,41.464394,-81.499967,MICHAEL SUNSERI,1012608,JASON SHOFFSTALL,1003918,2382,1002752,DANA GREEN,#FF7F50
100212166,WU'S CHINA BUFFET,1144127,AARON SIMMONS,4187,Aaron Simmons,38.312838,-81.566946,CJ MORRIS,1151728,BILL HENDERSON,1004626,4209,1002752,DANA GREEN,#7F00FF
722481526,Dina's Pizza & Pub,1156768,MATTHEW DEPANTE,4092,Matt DePante,41.439858,-81.725981,MICHAEL SUNSERI,1012608,JASON SHOFFSTALL,1003918,2382,1002752,DANA GREEN,#FFD700
100169715,HALE FARM & WILLAGE,1127444,CORINNE BERRETT,3556,Corinne Berrett,41.193671,-81.592398,JASON SHOFFSTALL,1003918,JASON SHOFFSTALL,1003918,2382,1002752,DANA GREEN,#00FF00
104100015,JERRY'S CATERING SERVICE,1139082,DAN GAGE,4006,Dan Gage,39.96195,-79.876682,DAN SCHER,1003808,BILL HENDERSON,1004626,4209,1002752,DANA GREEN,#007FFF
722609243,The Merchant Tavern,1127444,CORINNE BERRETT,3556,Corinne Berrett,41.135281,-81.55467,JASON SHOFFSTALL,1003918,JASON SHOFFSTALL,1003918,2382,1002752,DANA GREEN,#00FF00
309400011,J J'S LITEHOUSE,1114322,VINCE RICOTTILLI,3489,Vince Ricottilli,41.218727,-80.491423,JASON SHOFFSTALL,1003918,JASON SHOFFSTALL,1003918,2382,1002752,DANA GREEN,#FF3030
100197493,JOHN-JOHNS SEAFOOD W/SOUL CLEVELAND HTS,1007192,ADAM PETERSON,4089,Adam Peterson,41.516031,-81.568353,GREG ENGLEHART,1113736,JASON SHOFFSTALL,1003918,2382,1002752,DANA GREEN,#A52A2A
722480521,Betts Downtown,1126586,RICK ARGOSO,4090,Rick Argoso,41.50009,-81.686705,MICHAEL SUNSERI,1012608,JASON SHOFFSTALL,1003918,2382,1002752,DANA GREEN,#ADFF2F
722371145,The Faktory,1007192,ADAM PETERSON,4089,Adam Peterson,41.416921,-81.580906,GREG ENGLEHART,1113736,JASON SHOFFSTALL,1003918,2382,1002752,DANA GREEN,#A52A2A
100017928,LOBY'S BAR & GRILLE,1152843,NICOLAS LOOMAN,4009,Nicolas Looman,40.833153,-81.432443,JASON SHOFFSTALL,1003918,JASON SHOFFSTALL,1003918,2382,1002752,DANA GREEN,#BA55D3
100131978,CAO SENIOR NUTRITION KITCHEN,1003551,DAVE JENKINS,4191,Dave Jenkins,38.731993,-83.003068,CJ MORRIS,1151728,BILL HENDERSON,1004626,4209,1002752,DANA GREEN,#D2691E
722404654,CAFE APPALACHIA,1127280,TYLER KNECHT,4216,Tyler Knecht,38.364614,-81.693495,CJ MORRIS,1151728,BILL HENDERSON,1004626,4209,1002752,DANA GREEN,#00FF7F
722553947,Johns Bar & Grille,1006510,SCOTT FEHLMAN,2384,Scott Fehlman,40.873713,-81.332036,JASON SHOFFSTALL,1003918,JASON SHOFFSTALL,1003918,2382,1002752,DANA GREEN,#FF6347
722386481,Time Square,1156669,MICHAEL SIMON,3798,Michael Simon,41.86064,-80.95194,GREG ENGLEHART,1113736,JASON SHOFFSTALL,1003918,2382,1002752,DANA GREEN,#E6E6FA
100265522,ASIAN CHAO #F17- BOARDMAN,1150715,JAMES ROBISON,4011,James Robison,41.021409,-80.662668,JASON SHOFFSTALL,1003918,JASON SHOFFSTALL,1003918,2382,1002752,DANA GREEN,#E6E6FA
722388942,The Workz,1127444,CORINNE BERRETT,3556,Corinne Berrett,41.136582,-81.482831,JASON SHOFFSTALL,1003918,JASON SHOFFSTALL,1003918,2382,1002752,DANA GREEN,#00FF00
722504894,BAM!  Nobles Pond,1152843,NICOLAS LOOMAN,4009,Nicolas Looman,40.860532,-81.483089,JASON SHOFFSTALL,1003918,JASON SHOFFSTALL,1003918,2382,1002752,DANA GREEN,#BA55D3
100142002,MUSKETEER'S BAR & GRILL,1005616,BILL SMITH,4086,Bill Smith,41.217804,-81.638007,MICHAEL SUNSERI,1012608,JASON SHOFFSTALL,1003918,2382,1002752,DANA GREEN,#FFA500
722351892,OTB Hastings,1001993,ANDY SMITH,4058,Andy Smith,40.331459,-80.113508,DAN SCHER,1003808,BILL HENDERSON,1004626,4209,1002752,DANA GREEN,#ADFF2F
620940011,TOP OF VIADUCT,1152843,NICOLAS LOOMAN,4009,Nicolas Looman,40.794166,-81.53103,JASON SHOFFSTALL,1003918,JASON SHOFFSTALL,1003918,2382,1002752,DANA GREEN,#BA55D3
100116559,CLUB LEGENDS BANQUET FACILITY,1152843,NICOLAS LOOMAN,4009,Nicolas Looman,40.768607,-81.496611,JASON SHOFFSTALL,1003918,JASON SHOFFSTALL,1003918,2382,1002752,DANA GREEN,#BA55D3
886120001,SPRINGHOUSE (THE),1144442,BRIAN MERWIN,4213,Brian Merwin,40.18615,-80.154266,DAN SCHER,1003808,BILL HENDERSON,1004626,4209,1002752,DANA GREEN,#ADFF2F
513480016,PINE TREE BARN,1004399,MAT HARBERT,4012,Mat Harbert,40.745102,-81.984677,JASON SHOFFSTALL,1003918,JASON SHOFFSTALL,1003918,2382,1002752,DANA GREEN,#ADFF2F
722578939,Mizu Japanese Restaurant,1150715,JAMES ROBISON,4011,James Robison,41.211052,-80.75281,JASON SHOFFSTALL,1003918,JASON SHOFFSTALL,1003918,2382,1002752,DANA GREEN,#E6E6FA
722503928,Domenico's On Grand,1139082,DAN GAGE,4006,Dan Gage,40.146375,-79.884167,DAN SCHER,1003808,BILL HENDERSON,1004626,4209,1002752,DANA GREEN,#007FFF
100031365,ASIAN CHAO- FAIRLAWN,1127444,CORINNE BERRETT,3556,Corinne Berrett,41.132555,-81.618948,JASON SHOFFSTALL,1003918,JASON SHOFFSTALL,1003918,2382,1002752,DANA GREEN,#00FF00
722384266,The Getaway,1001993,ANDY SMITH,4058,Andy Smith,40.383975,-80.015811,DAN SCHER,1003808,BILL HENDERSON,1004626,4209,1002752,DANA GREEN,#ADFF2F
100016216,FLIEHMAN CONCESSION,1003551,DAVE JENKINS,4191,Dave Jenkins,39.600301,-82.944009,CJ MORRIS,1151728,BILL HENDERSON,1004626,4209,1002752,DANA GREEN,#D2691E
722582178,Forever Lawn Sports Complex,1006510,SCOTT FEHLMAN,2384,Scott Fehlman,40.780474,-81.403335,JASON SHOFFSTALL,1003918,JASON SHOFFSTALL,1003918,2382,1002752,DANA GREEN,#FF6347
722619013,John's Bakery and Cafe,1154683,DAVID PHILLIPS,4422,David Phillips,40.730356,-81.101533,JASON SHOFFSTALL,1003918,JASON SHOFFSTALL,1003918,2382,1002752,DANA GREEN,#00CED1
722510086,River Town Grill,1002320,JASON BAUER,3942,Jason Bauer,39.384945,-81.476467,CJ MORRIS,1151728,BILL HENDERSON,1004626,4209,1002752,DANA GREEN,#007FFF
722394009,Grove Kosher Market,1007192,ADAM PETERSON,4089,Adam Peterson,41.507215,-81.536522,GREG ENGLEHART,1113736,JASON SHOFFSTALL,1003918,2382,1002752,DANA GREEN,#A52A2A
628710001,TORO LOCO OF PORTSMOUTH,1003551,DAVE JENKINS,4191,Dave Jenkins,38.73572,-82.998621,CJ MORRIS,1151728,BILL HENDERSON,1004626,4209,1002752,DANA GREEN,#D2691E
100285136,BRIDGES AND BOURBON,1148746,JEREMY NEIDERHISER,4052,Jeremy Neiderhiser,40.443996,-79.997197,BILLY BLATT,1128843,BILL HENDERSON,1004626,4209,1002752,DANA GREEN,#FF7F50
100104501,QUE PASA- MINERVA,1154683,DAVID PHILLIPS,4422,David Phillips,40.728025,-81.103417,JASON SHOFFSTALL,1003918,JASON SHOFFSTALL,1003918,2382,1002752,DANA GREEN,#00CED1
722398536,CALAMITY J'S,1003551,DAVE JENKINS,4191,Dave Jenkins,38.423859,-82.432782,CJ MORRIS,1151728,BILL HENDERSON,1004626,4209,1002752,DANA GREEN,#D2691E
722611149,Fix Me A Plate,1132417,MIKE PERRUCCI,4214,Mike Perrucci,40.425325,-79.834603,BILLY BLATT,1128843,BILL HENDERSON,1004626,4209,1002752,DANA GREEN,#FF3030
722616989,Market Street Cafe Portsmouth,1003551,DAVE JENKINS,4191,Dave Jenkins,38.732169,-83.002926,CJ MORRIS,1151728,BILL HENDERSON,1004626,4209,1002752,DANA GREEN,#D2691E
100289804,THE LOOKOUT BAR & GRILL,1144127,AARON SIMMONS,4187,Aaron Simmons,38.349408,-81.635957,CJ MORRIS,1151728,BILL HENDERSON,1004626,4209,1002752,DANA GREEN,#7F00FF
722392678,Sage Karma Kitchen,1007241,CHRIS MADIAS,3796,Chris Madias,41.641622,-81.406531,GREG ENGLEHART,1113736,JASON SHOFFSTALL,1003918,2382,1002752,DANA GREEN,#FF00FF
100248354,WALTHERS TWIN TAVERN,1006510,SCOTT FEHLMAN,2384,Scott Fehlman,40.890618,-81.409182,JASON SHOFFSTALL,1003918,JASON SHOFFSTALL,1003918,2382,1002752,DANA GREEN,#FF6347
100122463,BEST WESTERN PLUS,1005492,JOSH GEE,4007,Josh Gee,39.28223,-80.277642,DAN SCHER,1003808,BILL HENDERSON,1004626,4209,1002752,DANA GREEN,#BA55D3
100031405,FUJI JAPANESE REST.,1007241,CHRIS MADIAS,3796,Chris Madias,41.660283,-81.363605,GREG ENGLEHART,1113736,JASON SHOFFSTALL,1003918,2382,1002752,DANA GREEN,#FF00FF
100286291,Chelo's Restaurant,1007192,ADAM PETERSON,4089,Adam Peterson,41.520026,-81.519911,GREG ENGLEHART,1113736,JASON SHOFFSTALL,1003918,2382,1002752,DANA GREEN,#A52A2A
100144534,MCKELVEY'S PUB,1004399,MAT HARBERT,4012,Mat Harbert,40.554299,-81.919442,JASON SHOFFSTALL,1003918,JASON SHOFFSTALL,1003918,2382,1002752,DANA GREEN,#ADFF2F
666500016,MRS YODER'S KITCHEN,1006510,SCOTT FEHLMAN,2384,Scott Fehlman,40.624412,-81.785541,JASON SHOFFSTALL,1003918,JASON SHOFFSTALL,1003918,2382,1002752,DANA GREEN,#FF6347
100020988,SHERATON ERIE BAYFRONT HOTEL,1146883,KRISTIAN YOUNG,3803,Kristian Young,42.136695,-80.092602,GREG ENGLEHART,1113736,JASON SHOFFSTALL,1003918,2382,1002752,DANA GREEN,#A9A9A9
100197305,GRAND CHINA BUFFET SUSHI & GRILL,1005492,JOSH GEE,4007,Josh Gee,39.264746,-80.287612,DAN SCHER,1003808,BILL HENDERSON,1004626,4209,1002752,DANA GREEN,#BA55D3
100179646,BELAIR'S BISTRO & CATERING,1002320,JASON BAUER,3942,Jason Bauer,39.275693,-81.589149,CJ MORRIS,1151728,BILL HENDERSON,1004626,4209,1002752,DANA GREEN,#007FFF
100283743,BRADDOCK INN 125931E,1132417,MIKE PERRUCCI,4214,Mike Perrucci,39.830876,-79.599607,BILLY BLATT,1128843,BILL HENDERSON,1004626,4209,1002752,DANA GREEN,#FF3030
722530570,Theo Yianni's,1161026,SHANNON HOWLEY,4059,Shannon Howley,40.396777,-80.533829,DAN SCHER,1003808,BILL HENDERSON,1004626,4209,1002752,DANA GREEN,#FF7F50
100057634,SAMURAI SUSHI & STEAKHOUSE,1005616,BILL SMITH,4086,Bill Smith,41.313101,-81.816154,MICHAEL SUNSERI,1012608,JASON SHOFFSTALL,1003918,2382,1002752,DANA GREEN,#FFA500
722642806,Pizza Cat Stow,1007192,ADAM PETERSON,4089,Adam Peterson,41.202879,-81.437551,GREG ENGLEHART,1113736,JASON SHOFFSTALL,1003918,2382,1002752,DANA GREEN,#A52A2A
100204951,MOBOGO ASIAN CUISINE,1139233,TOM MICCO,4051,Tom Micco,41.233149,-80.481574,BILLY BLATT,1128843,BILL HENDERSON,1004626,4209,1002752,DANA GREEN,#FFF0F5
722548427,Samurai Hibachi and Sushi,1144127,AARON SIMMONS,4187,Aaron Simmons,38.769049,-81.696073,CJ MORRIS,1151728,BILL HENDERSON,1004626,4209,1002752,DANA GREEN,#7F00FF
738050002,EL CANELO,1146883,KRISTIAN YOUNG,3803,Kristian Young,42.146668,-80.001738,GREG ENGLEHART,1113736,JASON SHOFFSTALL,1003918,2382,1002752,DANA GREEN,#A9A9A9
100030369,RIVER FRONT BAR & GRILLE,1002320,JASON BAUER,3942,Jason Bauer,39.410673,-81.452165,CJ MORRIS,1151728,BILL HENDERSON,1004626,4209,1002752,DANA GREEN,#007FFF
552250028,MAYFAIR COUNTRY CLUB  16107E,1152843,NICOLAS LOOMAN,4009,Nicolas Looman,40.965796,-81.443818,JASON SHOFFSTALL,1003918,JASON SHOFFSTALL,1003918,2382,1002752,DANA GREEN,#BA55D3
722614003,Maggie's Farm Distillery,1152891,LEANDRA JONES,4331,Leandra Jones,40.356056,-80.09208,DAN SCHER,1003808,BILL HENDERSON,1004626,4209,1002752,DANA GREEN,#FFDEAD
196450002,Oliverios Bridgeport,1005492,JOSH GEE,4007,Josh Gee,39.28919,-80.242175,DAN SCHER,1003808,BILL HENDERSON,1004626,4209,1002752,DANA GREEN,#BA55D3
722501007,Carson Street Deli and Craft Beer Bar,1001993,ANDY SMITH,4058,Andy Smith,40.428891,-79.983144,DAN SCHER,1003808,BILL HENDERSON,1004626,4209,1002752,DANA GREEN,#ADFF2F
100210864,THE FOUNDRY SOCIAL,1143541,CLIFFORD STENZEL,4093,CJ Stenzel,41.142535,-81.872962,MICHAEL SUNSERI,1012608,JASON SHOFFSTALL,1003918,2382,1002752,DANA GREEN,#FF0000
548870001,SUSY'S SOUP PUBLIC SQUARE,1126586,RICK ARGOSO,4090,Rick Argoso,41.496814,-81.694029,MICHAEL SUNSERI,1012608,JASON SHOFFSTALL,1003918,2382,1002752,DANA GREEN,#ADFF2F
100155591,YOURS TRULY PLAYHOUSE SQUARE,1149733,SCOTT SCHAEFFER,4088,Scott Schaeffer,41.50051,-81.683981,MICHAEL SUNSERI,1012608,JASON SHOFFSTALL,1003918,2382,1002752,DANA GREEN,#FF7F50
100036791,LEGACY CLUB,1006822,ANTHONY TRISTANO,3805,Anthony Tristano,41.479616,-81.998848,MICHAEL SUNSERI,1012608,JASON SHOFFSTALL,1003918,2382,1002752,DANA GREEN,#FF69B4
100038469,EL JALAPENO,1114322,VINCE RICOTTILLI,3489,Vince Ricottilli,41.212643,-80.760361,JASON SHOFFSTALL,1003918,JASON SHOFFSTALL,1003918,2382,1002752,DANA GREEN,#FF3030
100140364,COCKEYE BBQ,1114322,VINCE RICOTTILLI,3489,Vince Ricottilli,41.246682,-80.846533,JASON SHOFFSTALL,1003918,JASON SHOFFSTALL,1003918,2382,1002752,DANA GREEN,#FF3030
100055440,BOONDOCKS BBQ & GRILL,1127280,TYLER KNECHT,4216,Tyler Knecht,39.669906,-81.872001,CJ MORRIS,1151728,BILL HENDERSON,1004626,4209,1002752,DANA GREEN,#00FF7F
722562373,Gigis Diner,1143541,CLIFFORD STENZEL,4093,CJ Stenzel,40.900946,-81.733732,MICHAEL SUNSERI,1012608,JASON SHOFFSTALL,1003918,2382,1002752,DANA GREEN,#FF0000
722394997,Coffee Brake Meeder,1156224,AMANDA HILL,4671,Amanda Hill,40.70119,-80.10956,BILLY BLATT,1128843,BILL HENDERSON,1004626,4209,1002752,DANA GREEN,#D2691E
100265409,OTB NORTH PARK BOATHOUSE,1001993,ANDY SMITH,4058,Andy Smith,40.604942,-80.005803,DAN SCHER,1003808,BILL HENDERSON,1004626,4209,1002752,DANA GREEN,#ADFF2F
722603961,The Pit Stop Mini Mart,1154684,ROBERT MCKEE,3575,Robert McKee,41.2585,-82.301485,MICHAEL SUNSERI,1012608,JASON SHOFFSTALL,1003918,2382,1002752,DANA GREEN,#7F00FF
722389326,Ninja City,1126586,RICK ARGOSO,4090,Rick Argoso,41.483774,-81.731547,MICHAEL SUNSERI,1012608,JASON SHOFFSTALL,1003918,2382,1002752,DANA GREEN,#ADFF2F
100164178,KIDRON TOWN AND COUNTRY STORE,1004399,MAT HARBERT,4012,Mat Harbert,40.739364,-81.745643,JASON SHOFFSTALL,1003918,JASON SHOFFSTALL,1003918,2382,1002752,DANA GREEN,#ADFF2F
722345665,Revolution Pizza- Mentor,1153212,NICHOLAS CAMPBELL,3797,Nicholas Campbell,41.651808,-81.379103,GREG ENGLEHART,1113736,JASON SHOFFSTALL,1003918,2382,1002752,DANA GREEN,#4682B4
100021369,MALLARD CREEK GOLF CLUB,1006822,ANTHONY TRISTANO,3805,Anthony Tristano,41.313684,-81.986907,MICHAEL SUNSERI,1012608,JASON SHOFFSTALL,1003918,2382,1002752,DANA GREEN,#FF69B4
100149291,Pittsburgh Pirates Players Clubhouse,1001993,ANDY SMITH,4058,Andy Smith,40.446855,-80.005666,DAN SCHER,1003808,BILL HENDERSON,1004626,4209,1002752,DANA GREEN,#ADFF2F
391010013,PLACE TO BE DELI (THE),1156648,TONY BEHRENS,4091,Tony Behrens,41.485399,-81.799408,MICHAEL SUNSERI,1012608,JASON SHOFFSTALL,1003918,2382,1002752,DANA GREEN,#FF7F50
722603549,Valley Cafe Wadsworth,1143541,CLIFFORD STENZEL,4093,CJ Stenzel,41.025883,-81.72952,MICHAEL SUNSERI,1012608,JASON SHOFFSTALL,1003918,2382,1002752,DANA GREEN,#FF0000
722616194,Level 20,1152891,LEANDRA JONES,4331,Leandra Jones,40.336965,-80.023632,DAN SCHER,1003808,BILL HENDERSON,1004626,4209,1002752,DANA GREEN,#FFDEAD
100142112,RUBIS PIZZA & GRILL,1002320,JASON BAUER,3942,Jason Bauer,39.264595,-81.538249,CJ MORRIS,1151728,BILL HENDERSON,1004626,4209,1002752,DANA GREEN,#007FFF
693520037,RED CHIMNEY,1005616,BILL SMITH,4086,Bill Smith,41.456287,-81.644819,MICHAEL SUNSERI,1012608,JASON SHOFFSTALL,1003918,2382,1002752,DANA GREEN,#FFA500
722500237,Smashed Waffles,1148746,JEREMY NEIDERHISER,4052,Jeremy Neiderhiser,40.439893,-79.959413,BILLY BLATT,1128843,BILL HENDERSON,1004626,4209,1002752,DANA GREEN,#FF7F50
543650001,CORTINA'S RESTAURANT,1007192,ADAM PETERSON,4089,Adam Peterson,41.573663,-81.522688,GREG ENGLEHART,1113736,JASON SHOFFSTALL,1003918,2382,1002752,DANA GREEN,#A52A2A
795810001,SABLE CREEK GOLF COURSE  4400E,1152843,NICOLAS LOOMAN,4009,Nicolas Looman,40.954048,-81.283837,JASON SHOFFSTALL,1003918,JASON SHOFFSTALL,1003918,2382,1002752,DANA GREEN,#BA55D3
722413977,FUJI JAPANESE SUSHI STEAK HOUSE,1012245,TOM HERN,4195,Tom Hern,38.474182,-82.648113,CJ MORRIS,1151728,BILL HENDERSON,1004626,4209,1002752,DANA GREEN,#A9A9A9
722617055,Salvato's Pizza And Subs,1156669,MICHAEL SIMON,3798,Michael Simon,41.87414,-80.775551,GREG ENGLEHART,1113736,JASON SHOFFSTALL,1003918,2382,1002752,DANA GREEN,#E6E6FA
722616161,Harvey's Market,1004399,MAT HARBERT,4012,Mat Harbert,40.663228,-81.94335,JASON SHOFFSTALL,1003918,JASON SHOFFSTALL,1003918,2382,1002752,DANA GREEN,#ADFF2F
722523455,Colony Pub & Grille,1146883,KRISTIAN YOUNG,3803,Kristian Young,42.105683,-80.143202,GREG ENGLEHART,1113736,JASON SHOFFSTALL,1003918,2382,1002752,DANA GREEN,#A9A9A9
100054183,ABRUZZINO'S ITALIAN BAKERY,1005492,JOSH GEE,4007,Josh Gee,39.368449,-80.31276,DAN SCHER,1003808,BILL HENDERSON,1004626,4209,1002752,DANA GREEN,#BA55D3
100068307,GRILL AT DEBONNE,1156669,MICHAEL SIMON,3798,Michael Simon,41.740547,-81.009923,GREG ENGLEHART,1113736,JASON SHOFFSTALL,1003918,2382,1002752,DANA GREEN,#E6E6FA
722539238,Rollhouse Parma,1156768,MATTHEW DEPANTE,4092,Matt DePante,41.418368,-81.778399,MICHAEL SUNSERI,1012608,JASON SHOFFSTALL,1003918,2382,1002752,DANA GREEN,#FFD700
722632507,Undo's West,1161026,SHANNON HOWLEY,4059,Shannon Howley,40.074931,-80.863825,DAN SCHER,1003808,BILL HENDERSON,1004626,4209,1002752,DANA GREEN,#FF7F50
722581907,Lorain County Metro Parks,1154684,ROBERT MCKEE,3575,Robert McKee,41.462444,-82.194605,MICHAEL SUNSERI,1012608,JASON SHOFFSTALL,1003918,2382,1002752,DANA GREEN,#7F00FF
722385517,1010 Bridge Restaurant,1144127,AARON SIMMONS,4187,Aaron Simmons,38.340594,-81.642728,CJ MORRIS,1151728,BILL HENDERSON,1004626,4209,1002752,DANA GREEN,#7F00FF
722637510,Mario's Pizza,1001993,ANDY SMITH,4058,Andy Smith,40.417027,-80.045117,DAN SCHER,1003808,BILL HENDERSON,1004626,4209,1002752,DANA GREEN,#ADFF2F
575630022,MEMPHIS KIDDIE PARK,1156768,MATTHEW DEPANTE,4092,Matt DePante,41.440212,-81.757072,MICHAEL SUNSERI,1012608,JASON SHOFFSTALL,1003918,2382,1002752,DANA GREEN,#FFD700
722392689,Dutch Kitchen,1004399,MAT HARBERT,4012,Mat Harbert,40.801082,-81.727976,JASON SHOFFSTALL,1003918,JASON SHOFFSTALL,1003918,2382,1002752,DANA GREEN,#ADFF2F
694460038,El Campasino - Massillon,1152843,NICOLAS LOOMAN,4009,Nicolas Looman,40.793444,-81.457499,JASON SHOFFSTALL,1003918,JASON SHOFFSTALL,1003918,2382,1002752,DANA GREEN,#BA55D3
722510958,Charleston Tennis Club,1144127,AARON SIMMONS,4187,Aaron Simmons,38.332251,-81.655104,CJ MORRIS,1151728,BILL HENDERSON,1004626,4209,1002752,DANA GREEN,#7F00FF
722356067,Annie's Coffee & Creamery,1005492,JOSH GEE,4007,Josh Gee,39.652948,-79.891086,DAN SCHER,1003808,BILL HENDERSON,1004626,4209,1002752,DANA GREEN,#BA55D3
722398595,WALL STREET COFFEE COMPANY,1156669,MICHAEL SIMON,3798,Michael Simon,41.739457,-80.769406,GREG ENGLEHART,1113736,JASON SHOFFSTALL,1003918,2382,1002752,DANA GREEN,#E6E6FA
722617739,JTS Diner - Downstairs Delivery,1153212,NICHOLAS CAMPBELL,3797,Nicholas Campbell,41.69729,-81.393415,GREG ENGLEHART,1113736,JASON SHOFFSTALL,1003918,2382,1002752,DANA GREEN,#4682B4
503620001,MULLIGAN'S,1005616,BILL SMITH,4086,Bill Smith,41.312497,-81.856477,MICHAEL SUNSERI,1012608,JASON SHOFFSTALL,1003918,2382,1002752,DANA GREEN,#FFA500
100075884,ZANZIBAR DOWNTOWN,1007192,ADAM PETERSON,4089,Adam Peterson,41.49856,-81.688633,GREG ENGLEHART,1113736,JASON SHOFFSTALL,1003918,2382,1002752,DANA GREEN,#A52A2A
335360001,JT's Diner,1153212,NICHOLAS CAMPBELL,3797,Nicholas Campbell,41.69729,-81.393415,GREG ENGLEHART,1113736,JASON SHOFFSTALL,1003918,2382,1002752,DANA GREEN,#4682B4
100017618,Rivals Brew Pub,1005616,BILL SMITH,4086,Bill Smith,41.384178,-81.802473,MICHAEL SUNSERI,1012608,JASON SHOFFSTALL,1003918,2382,1002752,DANA GREEN,#FFA500
722328363,Barley House of Akron,1127444,CORINNE BERRETT,3556,Corinne Berrett,41.078962,-81.520681,JASON SHOFFSTALL,1003918,JASON SHOFFSTALL,1003918,2382,1002752,DANA GREEN,#00FF00
722560095,Great Oaks Tavern,1143541,CLIFFORD STENZEL,4093,CJ Stenzel,41.049093,-81.73352,MICHAEL SUNSERI,1012608,JASON SHOFFSTALL,1003918,2382,1002752,DANA GREEN,#FF0000
100034917,COUNTRY CLUB FOOD MANAGEMENT,1006822,ANTHONY TRISTANO,3805,Anthony Tristano,41.456836,-81.973158,MICHAEL SUNSERI,1012608,JASON SHOFFSTALL,1003918,2382,1002752,DANA GREEN,#FF69B4
722546760,Fatboys Saloon,1139233,TOM MICCO,4051,Tom Micco,41.703879,-80.282229,BILLY BLATT,1128843,BILL HENDERSON,1004626,4209,1002752,DANA GREEN,#FFF0F5
176120001,SPARE TIME RECREATION,1003551,DAVE JENKINS,4191,Dave Jenkins,38.517297,-82.671042,CJ MORRIS,1151728,BILL HENDERSON,1004626,4209,1002752,DANA GREEN,#D2691E
814710001,GAMPPS BP,1003551,DAVE JENKINS,4191,Dave Jenkins,38.766437,-82.842411,CJ MORRIS,1151728,BILL HENDERSON,1004626,4209,1002752,DANA GREEN,#D2691E
722559503,Geppettos Triskett,1156768,MATTHEW DEPANTE,4092,Matt DePante,41.455807,-81.801912,MICHAEL SUNSERI,1012608,JASON SHOFFSTALL,1003918,2382,1002752,DANA GREEN,#FFD700
918030001,LA PALMA MEXICAN RESTAURANT,1004399,MAT HARBERT,4012,Mat Harbert,40.554255,-81.91808,JASON SHOFFSTALL,1003918,JASON SHOFFSTALL,1003918,2382,1002752,DANA GREEN,#ADFF2F
722570149,Otto's Pub & Brewery,1140956,MICHAEL HUBER,4212,Michael Huber,40.810022,-77.912202,BILLY BLATT,1128843,BILL HENDERSON,1004626,4209,1002752,DANA GREEN,#FF007F
609870001,WHEELHOUSE,1144127,AARON SIMMONS,4187,Aaron Simmons,38.340869,-81.642712,CJ MORRIS,1151728,BILL HENDERSON,1004626,4209,1002752,DANA GREEN,#7F00FF
722568395,Dante's Pizza,1156768,MATTHEW DEPANTE,4092,Matt DePante,41.4413,-81.819467,MICHAEL SUNSERI,1012608,JASON SHOFFSTALL,1003918,2382,1002752,DANA GREEN,#FFD700
722607385,Tap-It Brewery and Grill Acme,1154783,ANGEL IVOCK,4483,Angel Ivock,40.118702,-79.400118,BILLY BLATT,1128843,BILL HENDERSON,1004626,4209,1002752,DANA GREEN,#FF69B4
100054535,DISTEFANO'S AUTHENTIC ITALIAN FOODS,1007241,CHRIS MADIAS,3796,Chris Madias,41.552529,-81.478267,GREG ENGLEHART,1113736,JASON SHOFFSTALL,1003918,2382,1002752,DANA GREEN,#FF00FF
100216743,MEA CUPPA COFFEE,1144127,AARON SIMMONS,4187,Aaron Simmons,38.360555,-81.640623,CJ MORRIS,1151728,BILL HENDERSON,1004626,4209,1002752,DANA GREEN,#7F00FF
626160002,Midway West,1012245,TOM HERN,4195,Tom Hern,38.414268,-82.462289,CJ MORRIS,1151728,BILL HENDERSON,1004626,4209,1002752,DANA GREEN,#A9A9A9
722323087,Pub Bricco,1127444,CORINNE BERRETT,3556,Corinne Berrett,41.135668,-81.555583,JASON SHOFFSTALL,1003918,JASON SHOFFSTALL,1003918,2382,1002752,DANA GREEN,#00FF00
125520001,PHILLIPPI'S FAMILY DINING & PIZZERIA,1156224,AMANDA HILL,4671,Amanda Hill,40.627025,-79.721154,BILLY BLATT,1128843,BILL HENDERSON,1004626,4209,1002752,DANA GREEN,#D2691E
602070001,Casa Del Rio - Wadsworth,1143541,CLIFFORD STENZEL,4093,CJ Stenzel,41.045123,-81.728741,MICHAEL SUNSERI,1012608,JASON SHOFFSTALL,1003918,2382,1002752,DANA GREEN,#FF0000
976370001,BIRMINGHAM BRIDGE TAVERN,1001993,ANDY SMITH,4058,Andy Smith,40.424501,-79.964741,DAN SCHER,1003808,BILL HENDERSON,1004626,4209,1002752,DANA GREEN,#ADFF2F
722487153,Mary's Diner-Concord,1003048,DAVID POOLE,3800,David Poole,41.662693,-81.241467,GREG ENGLEHART,1113736,JASON SHOFFSTALL,1003918,2382,1002752,DANA GREEN,#A9A9A9
100046249,JAWORSKI MEATS,1005616,BILL SMITH,4086,Bill Smith,41.36016,-81.814043,MICHAEL SUNSERI,1012608,JASON SHOFFSTALL,1003918,2382,1002752,DANA GREEN,#FFA500
100115531,SPRINGFIELD GRILLE BOARDMAN,1139233,TOM MICCO,4051,Tom Micco,41.021018,-80.629863,BILLY BLATT,1128843,BILL HENDERSON,1004626,4209,1002752,DANA GREEN,#FFF0F5
722633444,Hook Fish & Chicken North Side,1148746,JEREMY NEIDERHISER,4052,Jeremy Neiderhiser,40.456519,-80.007041,BILLY BLATT,1128843,BILL HENDERSON,1004626,4209,1002752,DANA GREEN,#FF7F50
100049083,SAGA - CRANBERRY,1156224,AMANDA HILL,4671,Amanda Hill,40.674902,-80.098782,BILLY BLATT,1128843,BILL HENDERSON,1004626,4209,1002752,DANA GREEN,#D2691E
100072495,Z Pub & Diner,1152307,KRISTEN STEWART,4054,Kristen Stewart,40.772835,-80.373724,BILLY BLATT,1128843,BILL HENDERSON,1004626,4209,1002752,DANA GREEN,#007FFF
100013648,MIMI'S ITALIAN FOOD & DELI,1147053,SHAUN NELSON,4013,Shaun Nelson,41.157185,-81.229405,JASON SHOFFSTALL,1003918,JASON SHOFFSTALL,1003918,2382,1002752,DANA GREEN,#FFF0F5
722497667,Apple Annie's-Fairmont,1005492,JOSH GEE,4007,Josh Gee,39.42837,-80.186202,DAN SCHER,1003808,BILL HENDERSON,1004626,4209,1002752,DANA GREEN,#BA55D3
100270881,SELBY 100 MILE HOUSE AND GARDENS,1003551,DAVE JENKINS,4191,Dave Jenkins,38.622902,-83.192162,CJ MORRIS,1151728,BILL HENDERSON,1004626,4209,1002752,DANA GREEN,#D2691E
563150002,GATEWAY GRILL,1132417,MIKE PERRUCCI,4214,Mike Perrucci,40.433888,-79.75552,BILLY BLATT,1128843,BILL HENDERSON,1004626,4209,1002752,DANA GREEN,#FF3030
100155018,KATIMALI'S,1012245,TOM HERN,4195,Tom Hern,38.43879,-82.385693,CJ MORRIS,1151728,BILL HENDERSON,1004626,4209,1002752,DANA GREEN,#A9A9A9
100017074,Mario's Southside Kitchen,1001993,ANDY SMITH,4058,Andy Smith,40.428781,-79.983072,DAN SCHER,1003808,BILL HENDERSON,1004626,4209,1002752,DANA GREEN,#ADFF2F
722648760,740 Social,1002320,JASON BAUER,3942,Jason Bauer,39.41223,-81.453721,CJ MORRIS,1151728,BILL HENDERSON,1004626,4209,1002752,DANA GREEN,#007FFF
722520173,The Georgetown Centre,1152891,LEANDRA JONES,4331,Leandra Jones,40.328436,-79.947186,DAN SCHER,1003808,BILL HENDERSON,1004626,4209,1002752,DANA GREEN,#FFDEAD
722506862,Nakama,1148746,JEREMY NEIDERHISER,4052,Jeremy Neiderhiser,40.428891,-79.982611,BILLY BLATT,1128843,BILL HENDERSON,1004626,4209,1002752,DANA GREEN,#FF7F50
722628922,Hook Fish And Chicken Homewood,1148746,JEREMY NEIDERHISER,4052,Jeremy Neiderhiser,40.458428,-79.90817,BILLY BLATT,1128843,BILL HENDERSON,1004626,4209,1002752,DANA GREEN,#FF7F50
260080001,COLD SPOT - CHARLESTON,1012245,TOM HERN,4195,Tom Hern,38.373023,-81.707623,CJ MORRIS,1151728,BILL HENDERSON,1004626,4209,1002752,DANA GREEN,#A9A9A9
588810062,PARASSON'S ITALIAN REST-WATERLOO RD,1147053,SHAUN NELSON,4013,Shaun Nelson,41.029649,-81.493607,JASON SHOFFSTALL,1003918,JASON SHOFFSTALL,1003918,2382,1002752,DANA GREEN,#FFF0F5
722554699,Asher's At The Airport,1139082,DAN GAGE,4006,Dan Gage,39.898561,-80.132887,DAN SCHER,1003808,BILL HENDERSON,1004626,4209,1002752,DANA GREEN,#007FFF
722618819,Warehouse Fish & Chicken,1007192,ADAM PETERSON,4089,Adam Peterson,41.538053,-81.527012,GREG ENGLEHART,1113736,JASON SHOFFSTALL,1003918,2382,1002752,DANA GREEN,#A52A2A
263660001,FRED'S PIZZA EXPRESS,1003551,DAVE JENKINS,4191,Dave Jenkins,38.738665,-82.976206,CJ MORRIS,1151728,BILL HENDERSON,1004626,4209,1002752,DANA GREEN,#D2691E
722567204,Cooked Goose Catering,1001993,ANDY SMITH,4058,Andy Smith,40.441283,-80.243269,DAN SCHER,1003808,BILL HENDERSON,1004626,4209,1002752,DANA GREEN,#ADFF2F
100045535,NO 1 KITCHEN,1012245,TOM HERN,4195,Tom Hern,38.411344,-82.485939,CJ MORRIS,1151728,BILL HENDERSON,1004626,4209,1002752,DANA GREEN,#A9A9A9
100035430,SPAGNAS,1002320,JASON BAUER,3942,Jason Bauer,39.411418,-81.459679,CJ MORRIS,1151728,BILL HENDERSON,1004626,4209,1002752,DANA GREEN,#007FFF
722371021,Rookies Sports Bar & Grill - 130th St,1149733,SCOTT SCHAEFFER,4088,Scott Schaeffer,41.376882,-81.784699,MICHAEL SUNSERI,1012608,JASON SHOFFSTALL,1003918,2382,1002752,DANA GREEN,#FF7F50
722623018,Pizza By Marchelloni,1139233,TOM MICCO,4051,Tom Micco,40.999848,-80.353906,BILLY BLATT,1128843,BILL HENDERSON,1004626,4209,1002752,DANA GREEN,#FFF0F5
100220762,RUN GRILL & BAR LLC (THE),1006822,ANTHONY TRISTANO,3805,Anthony Tristano,41.207331,-82.150191,MICHAEL SUNSERI,1012608,JASON SHOFFSTALL,1003918,2382,1002752,DANA GREEN,#FF69B4
722617169,33 On Mac,1140956,MICHAEL HUBER,4212,Michael Huber,40.504405,-78.404798,BILLY BLATT,1128843,BILL HENDERSON,1004626,4209,1002752,DANA GREEN,#FF007F
100137788,LUIGI PIZZERIA - GENEVA,1156669,MICHAEL SIMON,3798,Michael Simon,41.805737,-80.947332,GREG ENGLEHART,1113736,JASON SHOFFSTALL,1003918,2382,1002752,DANA GREEN,#E6E6FA
722523248,Local Provisions,1156224,AMANDA HILL,4671,Amanda Hill,40.487654,-79.882535,BILLY BLATT,1128843,BILL HENDERSON,1004626,4209,1002752,DANA GREEN,#D2691E
722354810,Barrel Lodge Bar & Grill,1147053,SHAUN NELSON,4013,Shaun Nelson,41.254256,-81.326546,JASON SHOFFSTALL,1003918,JASON SHOFFSTALL,1003918,2382,1002752,DANA GREEN,#FFF0F5
100153749,"OSCAR'S BREAKFAST, BURGERS, & BREWS",1012245,TOM HERN,4195,Tom Hern,38.412962,-82.30987,CJ MORRIS,1151728,BILL HENDERSON,1004626,4209,1002752,DANA GREEN,#A9A9A9
627000001,Trolley Stop Inn,1152891,LEANDRA JONES,4331,Leandra Jones,40.293257,-80.030747,DAN SCHER,1003808,BILL HENDERSON,1004626,4209,1002752,DANA GREEN,#FFDEAD
722373464,Holiday Inn Express- Erie,1146883,KRISTIAN YOUNG,3803,Kristian Young,42.049759,-80.087649,GREG ENGLEHART,1113736,JASON SHOFFSTALL,1003918,2382,1002752,DANA GREEN,#A9A9A9
722567548,Nicolinnis Chophouse,1114322,VINCE RICOTTILLI,3489,Vince Ricottilli,41.022958,-80.734509,JASON SHOFFSTALL,1003918,JASON SHOFFSTALL,1003918,2382,1002752,DANA GREEN,#FF3030
100143943,COZUMEL-RICHFIELD,1003048,DAVID POOLE,3800,David Poole,41.267207,-81.628732,GREG ENGLEHART,1113736,JASON SHOFFSTALL,1003918,2382,1002752,DANA GREEN,#A9A9A9
722570024,Southern Craft Restaurant & Bar,1002320,JASON BAUER,3942,Jason Bauer,39.288186,-81.532214,CJ MORRIS,1151728,BILL HENDERSON,1004626,4209,1002752,DANA GREEN,#007FFF
722618531,Masala House Indian Bistro,1144442,BRIAN MERWIN,4213,Brian Merwin,40.172275,-80.247333,DAN SCHER,1003808,BILL HENDERSON,1004626,4209,1002752,DANA GREEN,#ADFF2F
722480338,Eclectic Edibles Catering,1127444,CORINNE BERRETT,3556,Corinne Berrett,41.315059,-81.802054,JASON SHOFFSTALL,1003918,JASON SHOFFSTALL,1003918,2382,1002752,DANA GREEN,#00FF00
722539003,Oak Hill Fish And Chicken,1148746,JEREMY NEIDERHISER,4052,Jeremy Neiderhiser,40.443302,-79.969841,BILLY BLATT,1128843,BILL HENDERSON,1004626,4209,1002752,DANA GREEN,#FF7F50
794360001,SUPER 8,1012245,TOM HERN,4195,Tom Hern,38.395487,-82.412935,CJ MORRIS,1151728,BILL HENDERSON,1004626,4209,1002752,DANA GREEN,#A9A9A9
722595524,The Early Bird,1127280,TYLER KNECHT,4216,Tyler Knecht,38.852045,-82.145872,CJ MORRIS,1151728,BILL HENDERSON,1004626,4209,1002752,DANA GREEN,#00FF7F
532780012,Otani Japanese Restaurant,1007241,CHRIS MADIAS,3796,Chris Madias,41.518028,-81.450517,GREG ENGLEHART,1113736,JASON SHOFFSTALL,1003918,2382,1002752,DANA GREEN,#FF00FF
722520206,Check Please Cafe,1006822,ANTHONY TRISTANO,3805,Anthony Tristano,41.276604,-82.06168,MICHAEL SUNSERI,1012608,JASON SHOFFSTALL,1003918,2382,1002752,DANA GREEN,#FF69B4
722614969,Mindys Diner,1154683,DAVID PHILLIPS,4422,David Phillips,40.520787,-81.478781,JASON SHOFFSTALL,1003918,JASON SHOFFSTALL,1003918,2382,1002752,DANA GREEN,#00CED1
100046630,MARIOS WOODFIRED PIZZA,1152307,KRISTEN STEWART,4054,Kristen Stewart,40.695573,-80.304202,BILLY BLATT,1128843,BILL HENDERSON,1004626,4209,1002752,DANA GREEN,#007FFF
722556697,Patties & Pints Ironton,1003551,DAVE JENKINS,4191,Dave Jenkins,38.532098,-82.683774,CJ MORRIS,1151728,BILL HENDERSON,1004626,4209,1002752,DANA GREEN,#D2691E
722584759,Drip & Sip Cafe,1003048,DAVID POOLE,3800,David Poole,41.52554,-81.337999,GREG ENGLEHART,1113736,JASON SHOFFSTALL,1003918,2382,1002752,DANA GREEN,#A9A9A9
100051276,HARRY BUFFALO - N OLMSTED,1006822,ANTHONY TRISTANO,3805,Anthony Tristano,41.418408,-81.90191,MICHAEL SUNSERI,1012608,JASON SHOFFSTALL,1003918,2382,1002752,DANA GREEN,#FF69B4
722410892,THE RUSTY SPOON,1154683,DAVID PHILLIPS,4422,David Phillips,40.679734,-81.260794,JASON SHOFFSTALL,1003918,JASON SHOFFSTALL,1003918,2382,1002752,DANA GREEN,#00CED1
100030946,PRINCE OF INDIA,1148746,JEREMY NEIDERHISER,4052,Jeremy Neiderhiser,40.441298,-79.959037,BILLY BLATT,1128843,BILL HENDERSON,1004626,4209,1002752,DANA GREEN,#FF7F50
493640001,BLUE SKY RESTAURANT,1154684,ROBERT MCKEE,3575,Robert McKee,41.417467,-82.208789,MICHAEL SUNSERI,1012608,JASON SHOFFSTALL,1003918,2382,1002752,DANA GREEN,#7F00FF
722552606,Canyon Pizza,1140956,MICHAEL HUBER,4212,Michael Huber,40.794894,-77.858513,BILLY BLATT,1128843,BILL HENDERSON,1004626,4209,1002752,DANA GREEN,#FF007F
100157990,PANHEADZ PIZZA & PATTYZ,1003551,DAVE JENKINS,4191,Dave Jenkins,38.718906,-82.857961,CJ MORRIS,1151728,BILL HENDERSON,1004626,4209,1002752,DANA GREEN,#D2691E
100061200,SAL & ALS DINER,1154684,ROBERT MCKEE,3575,Robert McKee,41.418222,-82.206514,MICHAEL SUNSERI,1012608,JASON SHOFFSTALL,1003918,2382,1002752,DANA GREEN,#7F00FF
234060001,RIDGEWOOD GOLF COURSE,1156768,MATTHEW DEPANTE,4092,Matt DePante,41.386865,-81.734583,MICHAEL SUNSERI,1012608,JASON SHOFFSTALL,1003918,2382,1002752,DANA GREEN,#FFD700
722511546,The Haunted House Restaurant,1007192,ADAM PETERSON,4089,Adam Peterson,41.501388,-81.556435,GREG ENGLEHART,1113736,JASON SHOFFSTALL,1003918,2382,1002752,DANA GREEN,#A52A2A
100048552,BOOTLEGGERS BAR & GRILLE,1005616,BILL SMITH,4086,Bill Smith,41.313699,-81.987601,MICHAEL SUNSERI,1012608,JASON SHOFFSTALL,1003918,2382,1002752,DANA GREEN,#FFA500
587510002,AUNTIE EM'S ICE CREAM CO.,1006510,SCOTT FEHLMAN,2384,Scott Fehlman,40.88014,-81.56448,JASON SHOFFSTALL,1003918,JASON SHOFFSTALL,1003918,2382,1002752,DANA GREEN,#FF6347
100021423,DON TEQUILA PERTHE,1143541,CLIFFORD STENZEL,4093,CJ Stenzel,41.157722,-81.862389,MICHAEL SUNSERI,1012608,JASON SHOFFSTALL,1003918,2382,1002752,DANA GREEN,#FF0000
722528046,Cocky's Flats,1156768,MATTHEW DEPANTE,4092,Matt DePante,41.499386,-81.705293,MICHAEL SUNSERI,1012608,JASON SHOFFSTALL,1003918,2382,1002752,DANA GREEN,#FFD700
722528956,The Cleveland IX Center,1005616,BILL SMITH,4086,Bill Smith,41.39943,-81.85359,MICHAEL SUNSERI,1012608,JASON SHOFFSTALL,1003918,2382,1002752,DANA GREEN,#FFA500
100159486,MEXICAN GRILL,1004399,MAT HARBERT,4012,Mat Harbert,40.557711,-81.811026,JASON SHOFFSTALL,1003918,JASON SHOFFSTALL,1003918,2382,1002752,DANA GREEN,#ADFF2F
722360512,Stanganelli's Italian Foods,1146883,KRISTIAN YOUNG,3803,Kristian Young,42.117775,-80.060921,GREG ENGLEHART,1113736,JASON SHOFFSTALL,1003918,2382,1002752,DANA GREEN,#A9A9A9
100037717,OPEN DOOR COFFEE HOUSE,1156669,MICHAEL SIMON,3798,Michael Simon,41.771589,-81.047769,GREG ENGLEHART,1113736,JASON SHOFFSTALL,1003918,2382,1002752,DANA GREEN,#E6E6FA
100015179,STEWARTS ORIG HOTDOGS-OAK ST,1127280,TYLER KNECHT,4216,Tyler Knecht,38.399287,-82.571344,CJ MORRIS,1151728,BILL HENDERSON,1004626,4209,1002752,DANA GREEN,#00FF7F
100073605,CEDAR CREEK GRILLE,1007241,CHRIS MADIAS,3796,Chris Madias,41.501183,-81.497709,GREG ENGLEHART,1113736,JASON SHOFFSTALL,1003918,2382,1002752,DANA GREEN,#FF00FF
100017926,BLEACHERS SPORTS GRILLE,1156768,MATTHEW DEPANTE,4092,Matt DePante,41.378744,-81.734651,MICHAEL SUNSERI,1012608,JASON SHOFFSTALL,1003918,2382,1002752,DANA GREEN,#FFD700
722503153,Al's Fish And Chicken- Duquesne,1148746,JEREMY NEIDERHISER,4052,Jeremy Neiderhiser,40.383931,-79.859896,BILLY BLATT,1128843,BILL HENDERSON,1004626,4209,1002752,DANA GREEN,#FF7F50
100041147,THE PURPLE ONION,1144127,AARON SIMMONS,4187,Aaron Simmons,38.352022,-81.627702,CJ MORRIS,1151728,BILL HENDERSON,1004626,4209,1002752,DANA GREEN,#7F00FF
100071807,MIKES BAR & GRILLE,1005616,BILL SMITH,4086,Bill Smith,41.368945,-81.853019,MICHAEL SUNSERI,1012608,JASON SHOFFSTALL,1003918,2382,1002752,DANA GREEN,#FFA500
722642147,Common Plea - The Chadwick,1148746,JEREMY NEIDERHISER,4052,Jeremy Neiderhiser,40.611315,-80.054053,BILLY BLATT,1128843,BILL HENDERSON,1004626,4209,1002752,DANA GREEN,#FF7F50
722493282,Tap-it Brewery & Grill,1154783,ANGEL IVOCK,4483,Angel Ivock,40.21262,-79.497732,BILLY BLATT,1128843,BILL HENDERSON,1004626,4209,1002752,DANA GREEN,#FF69B4
100198207,BUBBA'S GOURMET BURGERS BEER SOUTHPOINTE,1132417,MIKE PERRUCCI,4214,Mike Perrucci,40.277378,-80.162082,BILLY BLATT,1128843,BILL HENDERSON,1004626,4209,1002752,DANA GREEN,#FF3030
690200031,WESTFIELD BLAIR CENTER,1143541,CLIFFORD STENZEL,4093,CJ Stenzel,41.024955,-81.933463,MICHAEL SUNSERI,1012608,JASON SHOFFSTALL,1003918,2382,1002752,DANA GREEN,#FF0000
526150015,RINKY DINKS RESTAURANT,1002320,JASON BAUER,3942,Jason Bauer,39.419032,-81.464584,CJ MORRIS,1151728,BILL HENDERSON,1004626,4209,1002752,DANA GREEN,#007FFF
522580002,MARSHALL HALL OF FAME CAFE,1012245,TOM HERN,4195,Tom Hern,38.421778,-82.444875,CJ MORRIS,1151728,BILL HENDERSON,1004626,4209,1002752,DANA GREEN,#A9A9A9
722491992,Seafood Tango Restaurant and Bar,1144442,BRIAN MERWIN,4213,Brian Merwin,40.21407,-80.19366,DAN SCHER,1003808,BILL HENDERSON,1004626,4209,1002752,DANA GREEN,#ADFF2F
100130880,ST JOHN'S VILLA,1154683,DAVID PHILLIPS,4422,David Phillips,40.580417,-81.095639,JASON SHOFFSTALL,1003918,JASON SHOFFSTALL,1003918,2382,1002752,DANA GREEN,#00CED1
100021771,FIFTH AVENUE FOOD MARKET,1148746,JEREMY NEIDERHISER,4052,Jeremy Neiderhiser,40.438444,-79.981813,BILLY BLATT,1128843,BILL HENDERSON,1004626,4209,1002752,DANA GREEN,#FF7F50
100129862,BLOSSOM MUSIC CENTER,1127444,CORINNE BERRETT,3556,Corinne Berrett,41.180933,-81.546904,JASON SHOFFSTALL,1003918,JASON SHOFFSTALL,1003918,2382,1002752,DANA GREEN,#00FF00
100026963,BAGLEY'S GRILL,1005616,BILL SMITH,4086,Bill Smith,41.36934,-81.805465,MICHAEL SUNSERI,1012608,JASON SHOFFSTALL,1003918,2382,1002752,DANA GREEN,#FFA500
722376774,Mill Street Merchants,1139082,DAN GAGE,4006,Dan Gage,39.898853,-79.730152,DAN SCHER,1003808,BILL HENDERSON,1004626,4209,1002752,DANA GREEN,#007FFF
722378933,Harbor View Grill Llc,1146883,KRISTIAN YOUNG,3803,Kristian Young,42.14416,-79.937716,GREG ENGLEHART,1113736,JASON SHOFFSTALL,1003918,2382,1002752,DANA GREEN,#A9A9A9
100260693,TOWN HOUSE,1002320,JASON BAUER,3942,Jason Bauer,39.4132,-81.45455,CJ MORRIS,1151728,BILL HENDERSON,1004626,4209,1002752,DANA GREEN,#007FFF
722619024,Smokin Mommas Burgers & Bbq,1012245,TOM HERN,4195,Tom Hern,38.433212,-82.144152,CJ MORRIS,1151728,BILL HENDERSON,1004626,4209,1002752,DANA GREEN,#A9A9A9
722506712,Cilantro Taqueria - North Olmsted,1007192,ADAM PETERSON,4089,Adam Peterson,41.425422,-81.897747,GREG ENGLEHART,1113736,JASON SHOFFSTALL,1003918,2382,1002752,DANA GREEN,#A52A2A
100020122,COOK VASCULAR CAFETERIA,1156224,AMANDA HILL,4671,Amanda Hill,40.628044,-79.583396,BILLY BLATT,1128843,BILL HENDERSON,1004626,4209,1002752,DANA GREEN,#D2691E
100055062,SI SENOR - SEVEN HILLS,1149733,SCOTT SCHAEFFER,4088,Scott Schaeffer,41.355407,-81.684503,MICHAEL SUNSERI,1012608,JASON SHOFFSTALL,1003918,2382,1002752,DANA GREEN,#FF7F50
722611160,Alesci's Of Shoregate,1153212,NICHOLAS CAMPBELL,3797,Nicholas Campbell,41.635049,-81.477755,GREG ENGLEHART,1113736,JASON SHOFFSTALL,1003918,2382,1002752,DANA GREEN,#4682B4
722606226,Italian Sausage Trailer,1156669,MICHAEL SIMON,3798,Michael Simon,41.874508,-80.773179,GREG ENGLEHART,1113736,JASON SHOFFSTALL,1003918,2382,1002752,DANA GREEN,#E6E6FA
722635053,Pizza Masters,1152307,KRISTEN STEWART,4054,Kristen Stewart,40.59371,-80.271901,BILLY BLATT,1128843,BILL HENDERSON,1004626,4209,1002752,DANA GREEN,#007FFF
100130897,MAYWOOD GRILL,1132417,MIKE PERRUCCI,4214,Mike Perrucci,39.845143,-79.621763,BILLY BLATT,1128843,BILL HENDERSON,1004626,4209,1002752,DANA GREEN,#FF3030
